country,state,city,station,last_update,latitude,longitude,pollutant_id,pollutant_min,pollutant_max,pollutant_avg
India,Bihar,Bhagalpur,"DM Office_Kachari Chowk, Bhagalpur - BSPCB",16-12-2025 21:00,25.251013,86.989001,NH3,1,1,1
India,Bihar,Bhagalpur,"DM Office_Kachari Chowk, Bhagalpur - BSPCB",16-12-2025 21:00,25.251013,86.989001,SO2,27,57,43
India,Bihar,Bhagalpur,"Mayaganj, Bhagalpur - BSPCB",16-12-2025 21:00,25.265194,87.012947,NH3,4,12,8
India,Bihar,Bhagalpur,"Mayaganj, Bhagalpur - BSPCB",16-12-2025 21:00,25.265194,87.012947,CO,30,88,60
India,Bihar,Bhagalpur,"Mayaganj, Bhagalpur - BSPCB",16-12-2025 21:00,25.265194,87.012947,OZONE,17,85,59
India,Bihar,Bihar Sharif,"D M Colony, Bihar Sharif - BSPCB",16-12-2025 21:00,25.204762,85.51496,PM10,65,159,115
India,Bihar,Bihar Sharif,"D M Colony, Bihar Sharif - BSPCB",16-12-2025 21:00,25.204762,85.51496,SO2,10,10,10
India,Bihar,Bihar Sharif,"D M Colony, Bihar Sharif - BSPCB",16-12-2025 21:00,25.204762,85.51496,CO,2,52,29
India,Bihar,Buxar,"Charitra Van, Buxar - BSPCB",16-12-2025 21:00,25.56752,83.966379,NO2,9,10,10
India,Bihar,Buxar,"Charitra Van, Buxar - BSPCB",16-12-2025 21:00,25.56752,83.966379,CO,22,28,25
India,Bihar,Chhapra,"Darshan Nagar, Chhapra - BSPCB",16-12-2025 21:00,25.7808257,84.7446768,PM10,26,136,93
India,Bihar,Chhapra,"Darshan Nagar, Chhapra - BSPCB",16-12-2025 21:00,25.7808257,84.7446768,SO2,43,53,47
India,Bihar,Chhapra,"Darshan Nagar, Chhapra - BSPCB",16-12-2025 21:00,25.7808257,84.7446768,CO,42,58,54
India,Bihar,Chhapra,"Darshan Nagar, Chhapra - BSPCB",16-12-2025 21:00,25.7808257,84.7446768,OZONE,152,255,188
India,Andhra_Pradesh,Tirumala,"Toll Gate, Tirumala - APPCB",16-12-2025 21:00,13.67,79.35,PM10,49,128,101
India,Andhra_Pradesh,Tirupati,"Vaikuntapuram, Tirupati - APPCB",16-12-2025 21:00,13.615387,79.40923,PM2.5,54,70,60
India,Andhra_Pradesh,Tirupati,"Vaikuntapuram, Tirupati - APPCB",16-12-2025 21:00,13.615387,79.40923,NO2,14,17,15
India,Andhra_Pradesh,Vijayawada,"HB Colony, Vijayawada - APPCB",16-12-2025 21:00,16.536107,80.594233,OZONE,25,44,34
India,Andhra_Pradesh,Vijayawada,"Kanuru, Vijayawada - APPCB",16-12-2025 21:00,16.486692,80.699436,PM10,29,84,50
India,Andhra_Pradesh,Vijayawada,"Kanuru, Vijayawada - APPCB",16-12-2025 21:00,16.486692,80.699436,NO2,27,60,38
India,Andhra_Pradesh,Vijayawada,"Kanuru, Vijayawada - APPCB",16-12-2025 21:00,16.486692,80.699436,NH3,2,3,3
India,Andhra_Pradesh,Vijayawada,"Kanuru, Vijayawada - APPCB",16-12-2025 21:00,16.486692,80.699436,SO2,7,17,11
India,Andhra_Pradesh,Vijayawada,"Kanuru, Vijayawada - APPCB",16-12-2025 21:00,16.486692,80.699436,CO,43,79,59
India,Andhra_Pradesh,Vijayawada,"Kanuru, Vijayawada - APPCB",16-12-2025 21:00,16.486692,80.699436,OZONE,21,21,21
India,Andhra_Pradesh,Vijayawada,"Rajiv Gandhi Park, Vijayawada - APPCB",16-12-2025 21:00,16.509717,80.612222,PM2.5,73,116,92
India,Bihar,Katihar,"Mirchaibari, Katihar - BSPCB",16-12-2025 21:00,25.560083,87.553265,OZONE,5,8,6
India,Bihar,Kishanganj,"SDM Office_Khagra, Kishanganj - BSPCB",16-12-2025 21:00,26.0881305,87.93840336,NH3,3,3,3
India,Bihar,Kishanganj,"SDM Office_Khagra, Kishanganj - BSPCB",16-12-2025 21:00,26.0881305,87.93840336,OZONE,14,17,16
India,Bihar,Motihari,"Gandak Colony, Motihari - BSPCB",16-12-2025 21:00,26.63086,84.90051,PM2.5,30,170,85
India,Bihar,Motihari,"Gandak Colony, Motihari - BSPCB",16-12-2025 21:00,26.63086,84.90051,OZONE,3,6,4
India,Bihar,Munger,"Town Hall, Munger - BSPCB",16-12-2025 21:00,25.376776,86.471523,PM2.5,57,213,117
India,Bihar,Munger,"Town Hall, Munger - BSPCB",16-12-2025 21:00,25.376776,86.471523,PM10,48,123,87
India,Bihar,Munger,"Town Hall, Munger - BSPCB",16-12-2025 21:00,25.376776,86.471523,NO2,4,5,5
India,Bihar,Araria,"Kharahiya Basti, Araria - BSPCB",16-12-2025 21:00,26.146529,87.454184,OZONE,9,10,10
India,Bihar,Arrah,"New DM Office, Arrah - BSPCB",16-12-2025 21:00,25.5626095,84.663264,CO,38,69,54
India,Bihar,Aurangabad,"Gurdeo Nagar, Aurangabad - BSPCB",16-12-2025 21:00,24.75746,84.366208,PM2.5,37,247,92
India,Bihar,Aurangabad,"Gurdeo Nagar, Aurangabad - BSPCB",16-12-2025 21:00,24.75746,84.366208,CO,101,103,102
India,Bihar,Begusarai,"Lohiyanagar, Begusarai - BSPCB",16-12-2025 21:00,25.42742023,86.13886079,CO,37,79,58
India,Bihar,Bettiah,"Kamalnath Nagar, Bettiah - BSPCB",16-12-2025 21:00,26.80365,84.51954,PM10,58,135,95
India,Assam,Nagaon,"Christianpatty, Nagaon - PCBA",16-12-2025 21:00,26.349082,92.68449,OZONE,7,9,9
India,Assam,Nalbari,"Bata Chowk, Nalbari - PCBA",16-12-2025 21:00,26.446912,91.439057,PM10,107,126,116
India,Assam,Sivasagar,"Girls College, Sivasagar - PCBA",16-12-2025 21:00,26.987634,94.636574,PM2.5,NA,NA,NA
India,Assam,Sivasagar,"Girls College, Sivasagar - PCBA",16-12-2025 21:00,26.987634,94.636574,CO,14,108,47
India,Bihar,Araria,"Kharahiya Basti, Araria - BSPCB",16-12-2025 21:00,26.146529,87.454184,PM10,37,150,93
India,Bihar,Gaya,"Collectorate, Gaya - BSPCB",16-12-2025 21:00,24.7955,84.9994,OZONE,19,21,19
India,Bihar,Gaya,"Kareemganj, Gaya - BSPCB",16-12-2025 21:00,24.792403,84.992416,CO,34,42,35
India,Bihar,Gaya,"SFTI Kusdihra, Gaya - BSPCB",16-12-2025 21:00,24.762518,84.982348,CO,24,50,31
India,Bihar,Hajipur,"Industrial Area, Hajipur - BSPCB",16-12-2025 21:00,25.697189,85.2459,PM10,101,121,112
India,Bihar,Hajipur,"Industrial Area, Hajipur - BSPCB",16-12-2025 21:00,25.697189,85.2459,NO2,40,66,47
India,Andaman and Nicobar,Sri Vijaya Puram,"Police Line, Sri Vijaya Puram - ANPCC",16-12-2025 21:00,11.654054,92.734055,PM2.5,32,48,38
India,Andaman and Nicobar,Sri Vijaya Puram,"Police Line, Sri Vijaya Puram - ANPCC",16-12-2025 21:00,11.654054,92.734055,CO,14,46,31
India,Andhra_Pradesh,Amaravati,"Secretariat, Amaravati - APPCB",16-12-2025 21:00,16.5150833,80.5181667,PM2.5,68,311,191
India,Andhra_Pradesh,Amaravati,"Secretariat, Amaravati - APPCB",16-12-2025 21:00,16.5150833,80.5181667,NO2,23,109,48
India,Andhra_Pradesh,Amaravati,"Secretariat, Amaravati - APPCB",16-12-2025 21:00,16.5150833,80.5181667,SO2,1,8,4
India,Assam,Byrnihat,"Central Academy for SFS, Byrnihat - PCBA",16-12-2025 21:00,26.071318,91.87488,CO,18,70,50
India,Assam,Guwahati,"LGBI Airport, Guwahati - PCBA",16-12-2025 21:00,26.10887,91.589544,OZONE,10,14,12
India,Assam,Guwahati,"Pan Bazaar, Guwahati - PCBA",16-12-2025 21:00,26.1875,91.744194,PM10,24,126,86
India,Assam,Guwahati,"Pan Bazaar, Guwahati - PCBA",16-12-2025 21:00,26.1875,91.744194,OZONE,17,18,18
India,Assam,Guwahati,"Railway Colony, Guwahati - PCBA",16-12-2025 21:00,26.181742,91.78063,CO,29,109,49
India,Andhra_Pradesh,Kadapa,"Yerramukkapalli, Kadapa - APPCB",16-12-2025 21:00,14.465052,78.824187,PM2.5,38,100,77
India,Andhra_Pradesh,Kadapa,"Yerramukkapalli, Kadapa - APPCB",16-12-2025 21:00,14.465052,78.824187,PM10,34,100,75
India,Andhra_Pradesh,Kadapa,"Yerramukkapalli, Kadapa - APPCB",16-12-2025 21:00,14.465052,78.824187,SO2,10,15,13
India,Andhra_Pradesh,Rajamahendravaram,"Anand Kala Kshetram, Rajamahendravaram - APPCB",16-12-2025 21:00,16.9872867,81.7363176,NH3,2,9,5
India,Andhra_Pradesh,Rajamahendravaram,"Anand Kala Kshetram, Rajamahendravaram - APPCB",16-12-2025 21:00,16.9872867,81.7363176,CO,34,72,47
India,Arunachal_Pradesh,Naharlagun,"Naharlagun, Naharlagun - APSPCB",16-12-2025 21:00,27.103358,93.679645,NH3,NA,NA,NA
India,Assam,Byrnihat,"Central Academy for SFS, Byrnihat - PCBA",16-12-2025 21:00,26.071318,91.87488,NH3,4,4,4
India,Chhattisgarh,Kunjemura,"OP Jindal School, Kunjemura - CECB",16-12-2025 21:00,22.12665,83.483212,PM10,38,105,75
India,Chhattisgarh,Milupara,"Govt. Higher Secondary School, Milupara - CECB",16-12-2025 21:00,22.1910172,83.5197009,PM10,98,249,146
India,Chhattisgarh,Milupara,"Govt. Higher Secondary School, Milupara - CECB",16-12-2025 21:00,22.1910172,83.5197009,NO2,23,86,50
India,Chhattisgarh,Milupara,"Govt. Higher Secondary School, Milupara - CECB",16-12-2025 21:00,22.1910172,83.5197009,SO2,12,49,21
India,Chhattisgarh,Raipur,"AIIMS, Raipur - CECB",16-12-2025 21:00,21.258815,81.578979,PM2.5,46,81,66
India,Chhattisgarh,Raipur,"AIIMS, Raipur - CECB",16-12-2025 21:00,21.258815,81.578979,NH3,NA,NA,NA
India,Chhattisgarh,Raipur,"AIIMS, Raipur - CECB",16-12-2025 21:00,21.258815,81.578979,CO,28,78,37
India,Chhattisgarh,Raipur,"Bhatagaon New ISBT, Raipur - CECB",16-12-2025 21:00,21.219665,81.630094,PM10,46,126,91
India,Chhattisgarh,Raipur,"Bhatagaon New ISBT, Raipur - CECB",16-12-2025 21:00,21.219665,81.630094,NO2,4,59,26
India,Chandigarh,Chandigarh,"Sector-25, Chandigarh - CPCC",16-12-2025 21:00,30.751462,76.762879,CO,48,70,52
India,Chandigarh,Chandigarh,"Sector-53, Chandigarh - CPCC",16-12-2025 21:00,30.719859,76.738637,NO2,26,96,51
India,Chandigarh,Chandigarh,"Sector-53, Chandigarh - CPCC",16-12-2025 21:00,30.719859,76.738637,SO2,8,13,11
India,Chhattisgarh,Bhilai,"32Bungalows, Bhilai - CECB",16-12-2025 21:00,21.194815,81.31477,NO2,33,112,67
India,Chhattisgarh,Bhilai,"32Bungalows, Bhilai - CECB",16-12-2025 21:00,21.194815,81.31477,OZONE,1,48,5
India,Chhattisgarh,Bhilai,"Civic Center, Bhilai - Bhilai Steel Plant",16-12-2025 21:00,21.185571,81.343175,NO2,22,22,22
India,Chhattisgarh,Bhilai,"Civic Center, Bhilai - Bhilai Steel Plant",16-12-2025 21:00,21.185571,81.343175,SO2,7,10,8
India,Chhattisgarh,Bhilai,"Hathkhoj, Bhilai - CECB",16-12-2025 21:00,21.224231,81.40835,PM10,41,151,87
India,Delhi,Delhi,"Anand Vihar, Delhi - DPCC",16-12-2025 21:00,28.647622,77.315809,PM10,129,500,288
India,Delhi,Delhi,"Anand Vihar, Delhi - DPCC",16-12-2025 21:00,28.647622,77.315809,SO2,3,39,22
India,Delhi,Delhi,"Anand Vihar, Delhi - DPCC",16-12-2025 21:00,28.647622,77.315809,OZONE,7,21,11
India,Delhi,Delhi,"Ashok Vihar, Delhi - DPCC",16-12-2025 21:00,28.695381,77.181665,SO2,18,31,24
India,Delhi,Delhi,"Aya Nagar, Delhi - IMD",16-12-2025 21:00,28.4706914,77.1099364,NO2,2,110,28
India,Delhi,Delhi,"Bawana, Delhi - DPCC",16-12-2025 21:00,28.7762,77.051074,NH3,8,13,10
India,Delhi,Delhi,"Bawana, Delhi - DPCC",16-12-2025 21:00,28.7762,77.051074,SO2,11,21,16
India,Bihar,Munger,"Town Hall, Munger - BSPCB",16-12-2025 21:00,25.376776,86.471523,NH3,5,7,6
India,Bihar,Muzaffarpur,"Buddha Colony, Muzaffarpur - BSPCB",16-12-2025 21:00,26.11442,85.39813,PM10,83,123,111
India,Bihar,Muzaffarpur,"MIT-Daudpur Kothi, Muzaffarpur - BSPCB",16-12-2025 21:00,26.1403345,85.3650192,PM2.5,97,127,111
India,Bihar,Patna,"DRM Office Danapur, Patna - BSPCB",16-12-2025 21:00,25.586562,85.043586,NO2,36,133,61
India,Bihar,Patna,"DRM Office Danapur, Patna - BSPCB",16-12-2025 21:00,25.586562,85.043586,NH3,6,17,10
India,Bihar,Patna,"Samanpura, Patna - BSPCB",16-12-2025 21:00,25.596727,85.085624,CO,26,124,31
India,Bihar,Patna,"Samanpura, Patna - BSPCB",16-12-2025 21:00,25.596727,85.085624,OZONE,10,78,62
India,Bihar,Purnia,"Mariam Nagar, Purnia - BSPCB",16-12-2025 21:00,25.366336,87.117468,PM2.5,28,150,79
India,Bihar,Rajgir,"Dangi Tola, Rajgir - BSPCB",16-12-2025 21:00,25.0328,85.41948,NO2,8,10,9
India,Bihar,Saharsa,"Police Line, Saharsa - BSPCB",16-12-2025 21:00,25.892357,86.590325,NH3,4,4,4
India,Chhattisgarh,Bilaspur,"Mangala, Bilaspur - NTPC",16-12-2025 21:00,22.08815,82.13737,NO2,17,132,38
India,Chhattisgarh,Chhal,"Nawapara SECL Colony, Chhal - CECB",16-12-2025 21:00,22.118125,83.140608,NO2,7,46,15
India,Chhattisgarh,Korba,"Rampur, Korba - CECB",16-12-2025 21:00,22.368195,82.746431,PM2.5,70,90,75
India,Chhattisgarh,Korba,"Urja Nagar, Korba - CECB",16-12-2025 21:00,22.348441,82.549611,CO,32,72,40
India,Bihar,Samastipur,"DM Office_Kasipur, Samastipur - BSPCB",16-12-2025 21:00,25.859655,85.77944,NH3,1,1,1
India,Bihar,Samastipur,"DM Office_Kasipur, Samastipur - BSPCB",16-12-2025 21:00,25.859655,85.77944,CO,38,77,49
India,Bihar,Sasaram,"Dada Peer, Sasaram - BSPCB",16-12-2025 21:00,24.952822,84.002396,PM10,70,165,102
India,Chandigarh,Chandigarh,"Sector 22, Chandigarh - CPCC",16-12-2025 21:00,30.735567,76.775714,OZONE,5,172,129
India,Bihar,Patna,"Govt. High School Shikarpur, Patna - BSPCB",16-12-2025 21:00,25.592539,85.227158,PM2.5,76,87,81
India,Bihar,Patna,"IGSC Planetarium Complex, Patna - BSPCB",16-12-2025 21:00,25.610369,85.132568,SO2,NA,NA,NA
India,Bihar,Patna,"Muradpur, Patna - BSPCB",16-12-2025 21:00,25.619651,85.147382,PM2.5,143,282,213
India,Bihar,Patna,"Rajbansi Nagar, Patna - BSPCB",16-12-2025 21:00,25.599486,85.113666,NO2,9,164,77
India,Chhattisgarh,Raipur,"Siltara Phase-II, Raipur - CECB",16-12-2025 21:00,21.371751,81.664929,NO2,9,65,26
India,Chhattisgarh,Raipur,"Siltara Phase-II, Raipur - CECB",16-12-2025 21:00,21.371751,81.664929,NH3,2,2,1
India,Delhi,Delhi,"Alipur, Delhi - DPCC",16-12-2025 21:00,28.815329,77.15301,NO2,32,97,52
India,Delhi,Delhi,"Dr. Karni Singh Shooting Range, Delhi - DPCC",16-12-2025 21:00,28.498571,77.26484,OZONE,11,133,91
India,Delhi,Delhi,"Dwarka-Sector 8, Delhi - DPCC ",16-12-2025 21:00,28.5710274,77.0719006,NH3,15,23,20
India,Delhi,Delhi,"IGI Airport (T3), Delhi - IMD",16-12-2025 21:00,28.5627763,77.1180053,OZONE,5,64,51
India,Delhi,Delhi,"IHBAS, Dilshad Garden, Delhi - CPCB",16-12-2025 21:00,28.6811736,77.3025234,PM2.5,83,353,282
India,Delhi,Delhi,"IHBAS, Dilshad Garden, Delhi - CPCB",16-12-2025 21:00,28.6811736,77.3025234,SO2,12,29,18
India,Delhi,Delhi,"IHBAS, Dilshad Garden, Delhi - CPCB",16-12-2025 21:00,28.6811736,77.3025234,CO,34,50,40
India,Delhi,Delhi,"IIT Delhi, Delhi - IITM",16-12-2025 21:00,28.54246,77.191651,CO,18,94,35
India,Delhi,Delhi,"Nehru Nagar, Delhi - DPCC",16-12-2025 21:00,28.56789,77.250515,PM10,167,427,277
India,Delhi,Delhi,"Nehru Nagar, Delhi - DPCC",16-12-2025 21:00,28.56789,77.250515,NO2,29,137,66
India,Delhi,Delhi,"Nehru Nagar, Delhi - DPCC",16-12-2025 21:00,28.56789,77.250515,NH3,1,42,22
India,Delhi,Delhi,"Nehru Nagar, Delhi - DPCC",16-12-2025 21:00,28.56789,77.250515,CO,129,157,133
India,Delhi,Delhi,"North Campus, DU, Delhi - IMD",16-12-2025 21:00,28.6573814,77.1585447,PM2.5,169,410,321
India,Delhi,Delhi,"Okhla Phase-2, Delhi - DPCC",16-12-2025 21:00,28.530785,77.271255,PM10,170,430,250
India,Delhi,Delhi,"Okhla Phase-2, Delhi - DPCC",16-12-2025 21:00,28.530785,77.271255,NH3,19,30,24
India,Delhi,Delhi,"Patparganj, Delhi - DPCC",16-12-2025 21:00,28.623763,77.287209,PM2.5,170,446,341
India,Delhi,Delhi,"Mundka, Delhi - DPCC",16-12-2025 21:00,28.684678,77.076574,PM10,165,500,323
India,Delhi,Delhi,"Mundka, Delhi - DPCC",16-12-2025 21:00,28.684678,77.076574,NH3,12,22,17
India,Delhi,Delhi,"Mundka, Delhi - DPCC",16-12-2025 21:00,28.684678,77.076574,SO2,5,21,11
India,Delhi,Delhi,"NSIT Dwarka, Delhi - CPCB",16-12-2025 21:00,28.60909,77.0325413,CO,56,102,72
India,Delhi,Delhi,"Najafgarh, Delhi - DPCC",16-12-2025 21:00,28.570173,76.933762,NH3,10,13,12
India,Delhi,Delhi,"Najafgarh, Delhi - DPCC",16-12-2025 21:00,28.570173,76.933762,SO2,6,93,44
India,Delhi,Delhi,"Narela, Delhi - DPCC",16-12-2025 21:00,28.822836,77.101981,NH3,8,11,9
India,Delhi,Delhi,"Narela, Delhi - DPCC",16-12-2025 21:00,28.822836,77.101981,OZONE,14,115,81
India,Delhi,Delhi,"Vivek Vihar, Delhi - DPCC",16-12-2025 21:00,28.672342,77.31526,NO2,33,118,65
India,Delhi,Delhi,"Vivek Vihar, Delhi - DPCC",16-12-2025 21:00,28.672342,77.31526,CO,42,111,59
India,Delhi,Delhi,"Wazirpur, Delhi - DPCC",16-12-2025 21:00,28.699793,77.165453,CO,33,94,53
India,Gujarat,Ahmedabad,"Chandkheda, Ahmedabad - IITM",16-12-2025 21:00,23.107969,72.574648,NO2,16,100,37
India,Gujarat,Ahmedabad,"Gyaspur, Ahmedabad - IITM",16-12-2025 21:00,22.977134,72.553024,PM2.5,92,256,155
India,Gujarat,Ahmedabad,"Maninagar, Ahmedabad - GPCB",16-12-2025 21:00,23.002657,72.591912,NO2,63,64,64
India,Gujarat,Ahmedabad,"Raikhad, Ahmedabad - IITM",16-12-2025 21:00,23.020509,72.579261,SO2,11,20,14
India,Gujarat,Ahmedabad,"SAC ISRO Bopal, Ahmedabad - IITM",16-12-2025 21:00,23.041137,72.456691,NH3,10,16,13
India,Gujarat,Ahmedabad,"SAC ISRO Bopal, Ahmedabad - IITM",16-12-2025 21:00,23.041137,72.456691,SO2,2,7,4
India,Gujarat,Ahmedabad,"SAC ISRO Satellite, Ahmedabad - IITM",16-12-2025 21:00,23.023389,72.515201,PM10,69,132,88
India,Gujarat,Ahmedabad,"SAC ISRO Satellite, Ahmedabad - IITM",16-12-2025 21:00,23.023389,72.515201,NO2,14,57,26
India,Gujarat,Ahmedabad,"SAC ISRO Satellite, Ahmedabad - IITM",16-12-2025 21:00,23.023389,72.515201,SO2,6,32,14
India,Gujarat,Ahmedabad,"SAC ISRO Satellite, Ahmedabad - IITM",16-12-2025 21:00,23.023389,72.515201,CO,31,90,43
India,Delhi,Delhi,"Jahangirpuri, Delhi - DPCC",16-12-2025 21:00,28.73282,77.170633,PM10,177,412,290
India,Delhi,Delhi,"Jahangirpuri, Delhi - DPCC",16-12-2025 21:00,28.73282,77.170633,SO2,3,62,22
India,Delhi,Delhi,"Jawaharlal Nehru Stadium, Delhi - DPCC",16-12-2025 21:00,28.58028,77.233829,PM2.5,207,442,333
India,Delhi,Delhi,"Jawaharlal Nehru Stadium, Delhi - DPCC",16-12-2025 21:00,28.58028,77.233829,SO2,9,38,21
India,Delhi,Delhi,"Lodhi Road, Delhi - IITM",16-12-2025 21:00,28.588333,77.221667,PM2.5,179,346,296
India,Delhi,Delhi,"Lodhi Road, Delhi - IITM",16-12-2025 21:00,28.588333,77.221667,PM10,132,206,173
India,Delhi,Delhi,"CRRI Mathura Road, Delhi - IMD",16-12-2025 21:00,28.5512005,77.2735737,NO2,46,122,72
India,Delhi,Delhi,"DTU, Delhi - CPCB",16-12-2025 21:00,28.7500499,77.1112615,PM2.5,198,500,367
India,Delhi,Delhi,"DTU, Delhi - CPCB",16-12-2025 21:00,28.7500499,77.1112615,SO2,25,32,28
India,Delhi,Delhi,"DTU, Delhi - CPCB",16-12-2025 21:00,28.7500499,77.1112615,OZONE,14,28,20
India,Delhi,Delhi,"Dr. Karni Singh Shooting Range, Delhi - DPCC",16-12-2025 21:00,28.498571,77.26484,CO,2,111,16
India,Delhi,Delhi,"Pusa, Delhi - DPCC",16-12-2025 21:00,28.639652,77.146275,OZONE,6,9,8
India,Delhi,Delhi,"R K Puram, Delhi - DPCC",16-12-2025 21:00,28.563262,77.186937,PM2.5,273,442,354
India,Delhi,Delhi,"R K Puram, Delhi - DPCC",16-12-2025 21:00,28.563262,77.186937,NH3,9,12,10
India,Delhi,Delhi,"R K Puram, Delhi - DPCC",16-12-2025 21:00,28.563262,77.186937,OZONE,12,139,80
India,Delhi,Delhi,"Rohini, Delhi - DPCC",16-12-2025 21:00,28.732528,77.11992,NH3,16,27,21
India,Delhi,Delhi,"Rohini, Delhi - DPCC",16-12-2025 21:00,28.732528,77.11992,CO,36,110,51
India,Delhi,Delhi,"Shadipur, Delhi - CPCB",16-12-2025 21:00,28.6514781,77.1473105,NO2,38,80,50
India,Delhi,Delhi,"Shadipur, Delhi - CPCB",16-12-2025 21:00,28.6514781,77.1473105,CO,30,123,57
India,Gujarat,Surat,"Science Center, Surat - SMC",16-12-2025 21:00,21.170046,72.795405,PM10,37,97,58
India,Gujarat,Surat,"Science Center, Surat - SMC",16-12-2025 21:00,21.170046,72.795405,SO2,31,57,35
India,Gujarat,Vapi,"Phase-1 GIDC, Vapi - GPCB",16-12-2025 21:00,20.362421,72.918013,NO2,2,9,5
India,Gujarat,Vatva,"Phase-4 GIDC, Vatva - GPCB",16-12-2025 21:00,22.969611,72.6435,SO2,1,7,5
India,Haryana,Ambala,"Patti Mehar, Ambala - HSPCB",16-12-2025 21:00,30.379589,76.778328,PM2.5,244,371,303
India,Haryana,Ambala,"Patti Mehar, Ambala - HSPCB",16-12-2025 21:00,30.379589,76.778328,PM10,126,216,156
India,Haryana,Ambala,"Patti Mehar, Ambala - HSPCB",16-12-2025 21:00,30.379589,76.778328,CO,75,101,76
India,Haryana,Bahadurgarh,"Arya Nagar, Bahadurgarh - HSPCB",16-12-2025 21:00,28.6701,76.9254,PM2.5,34,464,296
India,Haryana,Mandikhera,"General Hospital, Mandikhera(Nuh) - HSPCB",16-12-2025 21:00,27.9002,76.9938,NO2,NA,NA,NA
India,Haryana,Manesar,"Sector-2 IMT, Manesar - HSPCB",16-12-2025 21:00,28.360699,76.93609,PM10,101,378,157
India,Haryana,Manesar,"Sector-2 IMT, Manesar - HSPCB",16-12-2025 21:00,28.360699,76.93609,SO2,9,17,13
India,Haryana,Narnaul,"Shastri Nagar, Narnaul - HSPCB",16-12-2025 21:00,28.060249,76.113115,NO2,68,114,94
India,Haryana,Narnaul,"Shastri Nagar, Narnaul - HSPCB",16-12-2025 21:00,28.060249,76.113115,NH3,28,58,42
India,Haryana,Palwal,"Shyam Nagar, Palwal - HSPCB",16-12-2025 21:00,28.1485564,77.3320667,PM10,97,145,126
India,Haryana,Panchgaon,"Amity University, Panchgaon - IITM",16-12-2025 21:00,28.3153,76.9143,NO2,5,28,17
India,Haryana,Faridabad,"New Industrial Town, Faridabad - HSPCB",16-12-2025 21:00,28.39072,77.30059,PM10,NA,NA,NA
India,Haryana,Faridabad,"Sector 11, Faridabad - HSPCB",16-12-2025 21:00,28.376058,77.315741,OZONE,14,16,15
India,Haryana,Faridabad,"Sector 30, Faridabad - HSPCB",16-12-2025 21:00,28.4417,77.3217,NO2,36,39,37
India,Haryana,Fatehabad,"Huda Sector, Fatehabad - HSPCB",16-12-2025 21:00,29.503664,75.467934,NO2,18,20,19
India,Haryana,Fatehabad,"Huda Sector, Fatehabad - HSPCB",16-12-2025 21:00,29.503664,75.467934,NH3,13,15,14
India,Haryana,Fatehabad,"Huda Sector, Fatehabad - HSPCB",16-12-2025 21:00,29.503664,75.467934,OZONE,53,65,61
India,Haryana,Gurugram,"NISE Gwal Pahari, Gurugram - IMD",16-12-2025 21:00,28.422681,77.148944,PM2.5,73,377,288
India,Haryana,Ballabgarh,"Nathu Colony, Ballabgarh - HSPCB",16-12-2025 21:00,28.3419248,77.319699,NO2,19,21,20
India,Haryana,Ballabgarh,"Nathu Colony, Ballabgarh - HSPCB",16-12-2025 21:00,28.3419248,77.319699,SO2,4,9,6
India,Haryana,Bhiwani,"H.B. Colony, Bhiwani - HSPCB",16-12-2025 21:00,28.806223,76.141105,NH3,1,8,8
India,Haryana,Bhiwani,"H.B. Colony, Bhiwani - HSPCB",16-12-2025 21:00,28.806223,76.141105,OZONE,10,20,15
India,Haryana,Charkhi Dadri,"Mini Secretariat, Charkhi Dadri - HSPCB",16-12-2025 21:00,28.593883,76.270653,NH3,5,8,6
India,Haryana,Dharuhera,"Municipal Corporation Office, Dharuhera -  HSPCB",16-12-2025 21:00,28.2068,76.7997,PM2.5,191,413,328
India,Gujarat,Ahmedabad,"SVPI Airport Hansol, Ahmedabad - IITM",16-12-2025 21:00,23.076793,72.627874,SO2,5,11,8
India,Gujarat,Ankleshwar,"GIDC, Ankleshwar - GPCB",16-12-2025 21:00,21.613267,73.010555,SO2,34,40,37
India,Gujarat,Gandhinagar,"IIPHG Lekawada, Gandhinagar - IITM",16-12-2025 21:00,23.243639,72.68994,SO2,4,11,6
India,Gujarat,Gandhinagar,"Sector-10, Gandhinagar - GPCB",16-12-2025 21:00,23.221714,72.654328,NO2,16,34,20
India,Gujarat,Surat,"Science Center, Surat - SMC",16-12-2025 21:00,21.170046,72.795405,PM2.5,39,181,77
India,Haryana,Panchgaon,"Amity University, Panchgaon - IITM",16-12-2025 21:00,28.3153,76.9143,CO,1,48,7
India,Haryana,Panchkula,"Sector-6, Panchkula - HSPCB ",16-12-2025 21:00,30.7057778,76.85318056,SO2,8,9,9
India,Haryana,Panipat,"Sector-18, Panipat - HSPCB",16-12-2025 21:00,29.432304,76.972765,PM2.5,63,86,77
India,Haryana,Panipat,"Sector-18, Panipat - HSPCB",16-12-2025 21:00,29.432304,76.972765,PM10,127,155,138
India,Haryana,Sirsa,"F-Block, Sirsa - HSPCB",16-12-2025 21:00,29.5364,75.0158,CO,50,101,66
India,Haryana,Jind,"Police Lines, Jind - HSPCB",16-12-2025 21:00,29.307814,76.337619,NO2,35,53,43
India,Haryana,Jind,"Police Lines, Jind - HSPCB",16-12-2025 21:00,29.307814,76.337619,NH3,2,3,2
India,Haryana,Kaithal,"Rishi Nagar, Kaithal - HSPCB",16-12-2025 21:00,29.8006,76.4155,SO2,28,34,31
India,Haryana,Kurukshetra,"Sector-7, Kurukshetra - HSPCB",16-12-2025 21:00,29.966942,76.875879,PM10,123,171,155
India,Haryana,Kurukshetra,"Sector-7, Kurukshetra - HSPCB",16-12-2025 21:00,29.966942,76.875879,CO,26,57,41
India,Haryana,Gurugram,"Teri Gram, Gurugram - HSPCB",16-12-2025 21:00,28.4275,77.1465,PM2.5,161,446,319
India,Haryana,Gurugram,"Teri Gram, Gurugram - HSPCB",16-12-2025 21:00,28.4275,77.1465,CO,4,97,8
India,Haryana,Hisar,"Urban Estate-II, Hisar - HSPCB",16-12-2025 21:00,29.14056,75.744941,PM10,144,248,168
India,Haryana,Bahadurgarh,"Arya Nagar, Bahadurgarh - HSPCB",16-12-2025 21:00,28.6701,76.9254,CO,45,53,48
India,Jharkhand,Dhanbad,"Sardar Patel Nagar, Dhanbad - JSPCB",16-12-2025 21:00,23.80569,86.44268,PM10,102,285,145
India,Jharkhand,Dhanbad,"Sardar Patel Nagar, Dhanbad - JSPCB",16-12-2025 21:00,23.80569,86.44268,NO2,61,75,63
India,Jharkhand,Dhanbad,"Sardar Patel Nagar, Dhanbad - JSPCB",16-12-2025 21:00,23.80569,86.44268,OZONE,2,31,24
India,Karnataka,Belgaum,"Ramteerth Nagar, Belgaum - KSPCB",16-12-2025 21:00,15.888653,74.541751,PM10,51,135,84
India,Karnataka,Belgaum,"Ramteerth Nagar, Belgaum - KSPCB",16-12-2025 21:00,15.888653,74.541751,NH3,8,11,9
India,Karnataka,Bengaluru,"BWSSB Kadabesanahalli, Bengaluru - CPCB",16-12-2025 21:00,12.9352049,77.6814488,PM10,142,206,170
India,Karnataka,Bengaluru,"BWSSB Kadabesanahalli, Bengaluru - CPCB",16-12-2025 21:00,12.9352049,77.6814488,SO2,1,6,3
India,Karnataka,Bengaluru,"BWSSB Kadabesanahalli, Bengaluru - CPCB",16-12-2025 21:00,12.9352049,77.6814488,OZONE,15,52,25
India,Karnataka,Bengaluru,"City Railway Station, Bengaluru - KSPCB",16-12-2025 21:00,12.9756843,77.5660749,CO,84,88,86
India,Karnataka,Bengaluru,"Hebbal, Bengaluru - KSPCB",16-12-2025 21:00,13.029152,77.585901,PM10,73,139,102
India,Karnataka,Bengaluru,"Peenya, Bengaluru - CPCB",16-12-2025 21:00,13.0270199,77.494094,PM10,58,116,75
India,Karnataka,Bengaluru,"Peenya, Bengaluru - CPCB",16-12-2025 21:00,13.0270199,77.494094,NO2,22,29,25
India,Karnataka,Bengaluru,"Peenya, Bengaluru - CPCB",16-12-2025 21:00,13.0270199,77.494094,SO2,5,18,9
India,Karnataka,Bengaluru,"RVCE-Mailasandra, Bengaluru - KSPCB",16-12-2025 21:00,12.921418,77.502466,CO,24,51,35
India,Karnataka,Bengaluru,"Shivapura_Peenya, Bengaluru - KSPCB",16-12-2025 21:00,13.0246342,77.5080115,NH3,4,4,4
India,Karnataka,Bengaluru,"Silk Board, Bengaluru - KSPCB",16-12-2025 21:00,12.917348,77.622813,NO2,12,20,17
India,Karnataka,Bengaluru,"Silk Board, Bengaluru - KSPCB",16-12-2025 21:00,12.917348,77.622813,CO,24,41,32
India,Haryana,Sonipat,"Murthal, Sonipat - HSPCB",16-12-2025 21:00,29.0272,77.0621,OZONE,25,26,26
India,Himachal Pradesh,Baddi,"HIMUDA Complex Phase-1, Baddi - HPPCB",16-12-2025 21:00,30.943887,76.801991,PM2.5,63,348,240
India,Himachal Pradesh,Baddi,"HIMUDA Complex Phase-1, Baddi - HPPCB",16-12-2025 21:00,30.943887,76.801991,NH3,6,9,7
India,Jammu_and_Kashmir,Srinagar,"Khunmoh, Srinagar - JKPCC",16-12-2025 21:00,34.06313,74.96017,SO2,NA,NA,NA
India,Jammu_and_Kashmir,Srinagar,"Rajbagh, Srinagar - JKSPCB",16-12-2025 21:00,34.066206,74.81982,PM10,131,198,165
India,Karnataka,Bengaluru,"Hombegowda Nagar, Bengaluru - KSPCB",16-12-2025 21:00,12.938539,77.5901,NH3,2,4,3
India,Karnataka,Bengaluru,"Hombegowda Nagar, Bengaluru - KSPCB",16-12-2025 21:00,12.938539,77.5901,SO2,9,27,17
India,Karnataka,Bengaluru,"Jigani, Bengaluru - KSPCB",16-12-2025 21:00,12.7816279,77.6299145,PM2.5,56,80,69
India,Karnataka,Bengaluru,"Jigani, Bengaluru - KSPCB",16-12-2025 21:00,12.7816279,77.6299145,CO,27,43,31
India,Karnataka,Bengaluru,"Kasturi Nagar, Bengaluru - KSPCB",16-12-2025 21:00,13.003872,77.664217,NH3,1,1,1
India,Karnataka,Bengaluru,"Kasturi Nagar, Bengaluru - KSPCB",16-12-2025 21:00,13.003872,77.664217,SO2,11,13,12
India,Karnataka,Koppal,"Diwator Nagar, Koppal - KSPCB",16-12-2025 21:00,15.34763,76.181767,CO,28,44,33
India,Karnataka,Madikeri,"Stuart Hill, Madikeri - KSPCB",16-12-2025 21:00,12.415911,75.73505,PM10,20,58,46
India,Karnataka,Mangalore,"Kadri, Mangalore - KSPCB",16-12-2025 21:00,12.88925,74.853,PM2.5,36,204,98
India,Karnataka,Shivamogga,"Vinoba Nagara, Shivamogga - KSPCB",16-12-2025 21:00,13.94,75.555917,NH3,3,4,4
India,Karnataka,Chikkamagaluru,"Kalyana Nagara, Chikkamagaluru - KSPCB",16-12-2025 21:00,13.328028,75.797056,PM2.5,NA,NA,NA
India,Karnataka,Davanagere,"Devaraj Urs Badavane, Davanagere - KSPCB",16-12-2025 21:00,14.4758,75.9052,PM10,NA,NA,NA
India,Karnataka,Dharwad,"Kalabhavan, Dharwad - KSPCB",16-12-2025 21:00,15.459706,75.008381,CO,61,102,87
India,Karnataka,Dharwad,"Kalabhavan, Dharwad - KSPCB",16-12-2025 21:00,15.459706,75.008381,OZONE,19,26,23
India,Karnataka,Hubballi,"Lingaraj Nagar, Hubballi - KSPCB",16-12-2025 21:00,15.3714823,75.1160168,NO2,7,11,9
India,Karnataka,Hubballi,"Lingaraj Nagar, Hubballi - KSPCB",16-12-2025 21:00,15.3714823,75.1160168,SO2,1,2,1
India,Karnataka,Kalaburagi,"Mahatma Basaveswar Colony, Kalaburgi - KSPCB",16-12-2025 21:00,17.336318,76.847397,CO,37,98,53
India,Kerala,Thrissur,"Corporation Ground, Thrissur - Kerala PCB",16-12-2025 21:00,10.5324,76.2159,NO2,7,9,8
India,Kerala,Thrissur,"Corporation Ground, Thrissur - Kerala PCB",16-12-2025 21:00,10.5324,76.2159,OZONE,28,29,29
India,Madhya Pradesh,Bhopal,"Idgah Hills, Bhopal - MPPCB",16-12-2025 21:00,23.264759,77.381568,CO,18,56,28
India,Kerala,Kannur,"Thavakkara, Kannur - Kerala PCB",16-12-2025 21:00,11.875,75.3732,PM2.5,55,63,58
India,Kerala,Thiruvananthapuram,"Kariavattom, Thiruvananthapuram - Kerala PCB",16-12-2025 21:00,8.5637,76.8865,PM10,59,170,90
India,Maharashtra,Aurangabad,"More Chowk Waluj, Aurangabad - MPCB",16-12-2025 21:00,19.8389439,75.244448,PM10,42,71,55
India,Maharashtra,Aurangabad,"More Chowk Waluj, Aurangabad - MPCB",16-12-2025 21:00,19.8389439,75.244448,NO2,16,24,19
India,Maharashtra,Aurangabad,"Rachnakar Colony, Aurangabad - MPCB",16-12-2025 21:00,19.863756,75.321188,PM10,101,230,139
India,Maharashtra,Aurangabad,"Rachnakar Colony, Aurangabad - MPCB",16-12-2025 21:00,19.863756,75.321188,NO2,13,22,19
India,Maharashtra,Aurangabad,"Rachnakar Colony, Aurangabad - MPCB",16-12-2025 21:00,19.863756,75.321188,SO2,5,42,22
India,Maharashtra,Badlapur,"Katrap, Badlapur - MPCB",16-12-2025 21:00,19.16485,73.23409,NO2,13,32,22
India,Maharashtra,Badlapur,"Katrap, Badlapur - MPCB",16-12-2025 21:00,19.16485,73.23409,SO2,8,18,12
India,Maharashtra,Belapur,"CBD Belapur, Belapur - MPCB",16-12-2025 21:00,19.0243902,73.0406721,PM10,34,85,57
India,Maharashtra,Belapur,"CBD Belapur, Belapur - MPCB",16-12-2025 21:00,19.0243902,73.0406721,NO2,12,44,21
India,Maharashtra,Belapur,"CBD Belapur, Belapur - MPCB",16-12-2025 21:00,19.0243902,73.0406721,SO2,10,47,21
India,Madhya Pradesh,Katni,"Gole Bazar, Katni - MPPCB",16-12-2025 21:00,23.50016,80.23284,OZONE,11,89,56
India,Madhya Pradesh,Mandideep,"Sector-D Industrial Area, Mandideep - MPPCB",16-12-2025 21:00,23.10844,77.511428,PM2.5,82,320,207
India,Madhya Pradesh,Mandideep,"Sector-D Industrial Area, Mandideep - MPPCB",16-12-2025 21:00,23.10844,77.511428,PM10,120,350,215
India,Madhya Pradesh,Mandideep,"Sector-D Industrial Area, Mandideep - MPPCB",16-12-2025 21:00,23.10844,77.511428,CO,22,97,52
India,Madhya Pradesh,Ratlam,"Shasthri Nagar, Ratlam - IPCA Lab",16-12-2025 21:00,23.331731,75.045981,PM2.5,41,158,100
India,Madhya Pradesh,Ratlam,"Shasthri Nagar, Ratlam - IPCA Lab",16-12-2025 21:00,23.331731,75.045981,SO2,32,36,33
India,Maharashtra,Belapur,"CBD Belapur, Belapur - MPCB",16-12-2025 21:00,19.0243902,73.0406721,CO,17,50,23
India,Maharashtra,Bhiwandi,"Gokul Nagar, Bhiwandi - MPCB",16-12-2025 21:00,19.309073,73.057223,NH3,4,9,6
India,Maharashtra,Chandrapur,"Chauhan Colony, Chandrapur - MPCB",16-12-2025 21:00,19.9629,79.298714,PM10,142,420,224
India,Maharashtra,Chandrapur,"Chauhan Colony, Chandrapur - MPCB",16-12-2025 21:00,19.9629,79.298714,NO2,31,35,33
India,Maharashtra,Chandrapur,"Chauhan Colony, Chandrapur - MPCB",16-12-2025 21:00,19.9629,79.298714,OZONE,24,24,24
India,Maharashtra,Chandrapur,"MIDC Khutala, Chandrapur - MPCB",16-12-2025 21:00,19.9775302,79.2337086,NH3,3,17,9
India,Madhya Pradesh,Gwalior,"City Center, Gwalior - MPPCB",16-12-2025 21:00,26.203442,78.193251,CO,2,125,52
India,Madhya Pradesh,Gwalior,"Deen Dayal Nagar, Gwalior - MPPCB",16-12-2025 21:00,26.259242,78.216432,PM10,61,320,163
India,Madhya Pradesh,Gwalior,"Deen Dayal Nagar, Gwalior - MPPCB",16-12-2025 21:00,26.259242,78.216432,OZONE,3,159,94
India,Madhya Pradesh,Gwalior,"Maharaj Bada, Gwalior - MPPCB",16-12-2025 21:00,26.200388,78.147714,OZONE,28,67,49
India,Madhya Pradesh,Indore,"Airport Area, Indore - IMC",16-12-2025 21:00,22.7289,75.8076,PM10,45,176,98
India,Madhya Pradesh,Indore,"Airport Area, Indore - IMC",16-12-2025 21:00,22.7289,75.8076,CO,7,12,8
India,Madhya Pradesh,Sagar,"Civil Lines, Sagar - MPPCB",16-12-2025 21:00,23.838586,78.759431,NO2,10,49,20
India,Madhya Pradesh,Sagar,"Deen Dayal Nagar, Sagar - MPPCB",16-12-2025 21:00,23.8640158,78.80289321,NO2,7,99,46
India,Madhya Pradesh,Sagar,"Deen Dayal Nagar, Sagar - MPPCB",16-12-2025 21:00,23.8640158,78.80289321,CO,58,98,62
India,Madhya Pradesh,Singrauli,"Suryakiran Bhawan NCL, Singrauli - MPPCB",16-12-2025 21:00,24.10897,82.64558,OZONE,1,31,15
India,Madhya Pradesh,Bhopal,"T T Nagar, Bhopal - MPPCB",16-12-2025 21:00,23.233584,77.400574,OZONE,11,301,159
India,Madhya Pradesh,Dewas,"Bhopal Chauraha, Dewas - MPPCB",16-12-2025 21:00,22.9682591,76.064118,CO,18,38,26
India,Madhya Pradesh,Dewas,"Bhopal Chauraha, Dewas - MPPCB",16-12-2025 21:00,22.9682591,76.064118,OZONE,23,26,24
India,Madhya Pradesh,Gwalior,"City Center, Gwalior - MPPCB",16-12-2025 21:00,26.203442,78.193251,PM2.5,43,364,181
India,Madhya Pradesh,Jabalpur,"Marhatal, Jabalpur - MPPCB",16-12-2025 21:00,23.168606,79.932247,PM2.5,83,431,254
India,Madhya Pradesh,Jabalpur,"Marhatal, Jabalpur - MPPCB",16-12-2025 21:00,23.168606,79.932247,SO2,2,24,9
India,Madhya Pradesh,Jabalpur,"Marhatal, Jabalpur - MPPCB",16-12-2025 21:00,23.168606,79.932247,CO,18,123,41
India,Madhya Pradesh,Jabalpur,"Marhatal, Jabalpur - MPPCB",16-12-2025 21:00,23.168606,79.932247,OZONE,9,166,74
India,Maharashtra,Dhule,"Deopur, Dhule - MPCB",16-12-2025 21:00,20.918946,74.776388,PM2.5,10,263,108
India,Maharashtra,Dhule,"Deopur, Dhule - MPCB",16-12-2025 21:00,20.918946,74.776388,SO2,4,16,11
India,Maharashtra,Jalgaon,"Prabhat Colony, Jalgaon - MPCB",16-12-2025 21:00,21.001264,75.565602,NH3,2,3,2
India,Maharashtra,Ahmednagar,"Tarakpur, Ahmednagar - MPCB",16-12-2025 21:00,19.10122,74.73339,NH3,2,25,14
India,Maharashtra,Ahmednagar,"Tarakpur, Ahmednagar - MPCB",16-12-2025 21:00,19.10122,74.73339,CO,21,117,67
India,Maharashtra,Ahmednagar,"Tarakpur, Ahmednagar - MPCB",16-12-2025 21:00,19.10122,74.73339,OZONE,11,131,75
India,Maharashtra,Latur,"Sawe Wadi, Latur - MPCB",16-12-2025 21:00,18.39963,76.57452,CO,12,110,44
India,Maharashtra,Mahad,"Kamble Tarf Birwadi, Mahad - MPCB",16-12-2025 21:00,18.1023399,73.4783687,PM10,86,196,136
India,Maharashtra,Mahad,"Kamble Tarf Birwadi, Mahad - MPCB",16-12-2025 21:00,18.1023399,73.4783687,NO2,14,52,27
India,Maharashtra,Mahad,"Kamble Tarf Birwadi, Mahad - MPCB",16-12-2025 21:00,18.1023399,73.4783687,CO,25,53,40
India,Maharashtra,Malegaon,"Mahesh Nagar, Malegaon - MPCB",16-12-2025 21:00,20.555712,74.529236,PM2.5,66,148,102
India,Maharashtra,Mira-Bhayandar,"Bhayandar West, Mira-Bhayandar - MPCB",16-12-2025 21:00,19.296481,72.840923,PM2.5,44,91,70
India,Maharashtra,Nagpur,"Ram Nagar, Nagpur - MPCB",16-12-2025 21:00,21.143383,79.048912,NO2,18,80,36
India,Maharashtra,Nagpur,"Ram Nagar, Nagpur - MPCB",16-12-2025 21:00,21.143383,79.048912,SO2,21,53,34
India,Maharashtra,Nagpur,"Ram Nagar, Nagpur - MPCB",16-12-2025 21:00,21.143383,79.048912,OZONE,4,102,65
India,Maharashtra,Nanded,"Sneh Nagar, Nanded - MPCB",16-12-2025 21:00,19.173852,77.296291,NH3,4,5,4
India,Maharashtra,Nashik,"Gangapur Road, Nashik - MPCB",16-12-2025 21:00,20.0073285,73.7762427,PM2.5,30,92,56
India,Maharashtra,Nashik,"Gangapur Road, Nashik - MPCB",16-12-2025 21:00,20.0073285,73.7762427,OZONE,9,67,29
India,Maharashtra,Mumbai,"Kurla, Mumbai - MPCB",16-12-2025 21:00,19.0863,72.8888,CO,10,22,12
India,Maharashtra,Mumbai,"Malad West, Mumbai - IITM",16-12-2025 21:00,19.19709,72.82204,PM2.5,43,142,72
India,Maharashtra,Mumbai,"Mazgaon, Mumbai - IITM",16-12-2025 21:00,18.96702,72.84214,NO2,38,115,77
India,Maharashtra,Mumbai,"Mindspace-Malad West, Mumbai - MPCB",16-12-2025 21:00,19.1878657,72.8304069,SO2,8,35,19
India,Maharashtra,Mumbai,"Mulund West, Mumbai - MPCB",16-12-2025 21:00,19.175,72.9419,PM10,NA,NA,NA
India,Maharashtra,Mumbai,"Worli, Mumbai - MPCB",16-12-2025 21:00,18.9936162,72.8128113,NO2,4,21,10
India,Maharashtra,Nagpur,"Mahal, Nagpur - MPCB",16-12-2025 21:00,21.14472,79.107595,NO2,25,131,60
India,Maharashtra,Nagpur,"Mahal, Nagpur - MPCB",16-12-2025 21:00,21.14472,79.107595,SO2,2,109,46
India,Maharashtra,Nagpur,"Opp GPO Civil Lines, Nagpur - MPCB",16-12-2025 21:00,21.152875,79.0517531,PM10,106,186,144
India,Maharashtra,Nagpur,"Ram Nagar, Nagpur - MPCB",16-12-2025 21:00,21.143383,79.048912,PM10,110,245,151
India,Maharashtra,Mumbai,"Bandra Kurla Complex, Mumbai - MPCB",16-12-2025 21:00,19.065931,72.862131,PM10,105,257,149
India,Maharashtra,Mumbai,"Bandra Kurla Complex, Mumbai - MPCB",16-12-2025 21:00,19.065931,72.862131,CO,6,152,10
India,Maharashtra,Mumbai,"Borivali East, Mumbai - IITM",16-12-2025 21:00,19.23241,72.86895,PM2.5,39,90,57
India,Maharashtra,Mumbai,"Byculla, Mumbai - BMC",16-12-2025 21:00,18.9767,72.838,NH3,12,70,27
India,Maharashtra,Mumbai,"Byculla, Mumbai - BMC",16-12-2025 21:00,18.9767,72.838,OZONE,1,54,42
India,Maharashtra,Kalyan,"Khadakpada, Kalyan - MPCB",16-12-2025 21:00,19.25292,73.142019,NH3,1,1,1
India,Maharashtra,Kolhapur,"Shivaji University, Kolhapur - MPCB",16-12-2025 21:00,16.6870449,74.2505872,NO2,7,44,17
India,Maharashtra,Kolhapur,"Shivaji University, Kolhapur - MPCB",16-12-2025 21:00,16.6870449,74.2505872,OZONE,8,56,39
India,Maharashtra,Kolhapur,"Sinchan Bhavan, Kolhapur - MPCB",16-12-2025 21:00,16.7143745,74.2426398,NH3,6,18,11
India,Maharashtra,Kolhapur,"Sinchan Bhavan, Kolhapur - MPCB",16-12-2025 21:00,16.7143745,74.2426398,SO2,2,7,4
India,Maharashtra,Mumbai,"Ghatkopar, Mumbai - BMC",16-12-2025 21:00,19.083694,72.920967,OZONE,1,194,117
India,Maharashtra,Mumbai,"Kherwadi_Bandra East, Mumbai - MPCB",16-12-2025 21:00,19.0632143,72.8456324,OZONE,1,85,55
India,Maharashtra,Mumbai,"Khindipada-Bhandup West, Mumbai - IITM",16-12-2025 21:00,19.1653323,72.922099,NO2,40,96,59
India,Maharashtra,Mumbai,"Kurla, Mumbai - MPCB",16-12-2025 21:00,19.0863,72.8888,PM2.5,67,174,96
India,Maharashtra,Mumbai,"Chakala-Andheri East, Mumbai - IITM",16-12-2025 21:00,19.11074,72.86084,PM2.5,52,110,81
India,Maharashtra,Mumbai,"Chakala-Andheri East, Mumbai - IITM",16-12-2025 21:00,19.11074,72.86084,NO2,34,99,71
India,Maharashtra,Mumbai,"Chakala-Andheri East, Mumbai - IITM",16-12-2025 21:00,19.11074,72.86084,NH3,10,74,22
India,Maharashtra,Mumbai,"Colaba, Mumbai - MPCB",16-12-2025 21:00,18.91,72.82,CO,54,66,56
India,Maharashtra,Mumbai,"Deonar, Mumbai - IITM",16-12-2025 21:00,19.04946,72.923,NH3,9,14,11
India,Maharashtra,Mumbai,"Navy Nagar-Colaba, Mumbai - IITM",16-12-2025 21:00,18.897756,72.81332,SO2,9,59,31
India,Maharashtra,Mumbai,"Sion, Mumbai - MPCB",16-12-2025 21:00,19.047,72.8746,CO,8,14,10
India,Maharashtra,Mumbai,"Vile Parle West, Mumbai - MPCB",16-12-2025 21:00,19.10861,72.83622,NO2,11,11,11
India,Maharashtra,Mumbai,"Worli, Mumbai - MPCB",16-12-2025 21:00,18.9936162,72.8128113,PM10,80,130,101
India,Maharashtra,Parbhani,"Masoom Colony, Parbhani - MPCB",16-12-2025 21:00,19.265594,76.761463,SO2,NA,NA,NA
India,Maharashtra,Pimpri-Chinchwad,"Gavalinagar, Pimpri Chinchwad - MPCB",16-12-2025 21:00,18.63673,73.82487,NO2,NA,NA,NA
India,Maharashtra,Pimpri-Chinchwad,"Park Street Wakad, Pimpri Chinchwad - MPCB",16-12-2025 21:00,18.59051,73.77946,PM2.5,38,236,107
India,Maharashtra,Pimpri-Chinchwad,"Park Street Wakad, Pimpri Chinchwad - MPCB",16-12-2025 21:00,18.59051,73.77946,NH3,1,5,3
India,Maharashtra,Pimpri-Chinchwad,"Savta Mali Nagar, Pimpri-Chinchwad - IITM",16-12-2025 21:00,18.614767,73.799516,PM10,98,165,129
India,Maharashtra,Pimpri-Chinchwad,"Savta Mali Nagar, Pimpri-Chinchwad - IITM",16-12-2025 21:00,18.614767,73.799516,OZONE,5,56,37
India,Maharashtra,Pimpri-Chinchwad,"Thergaon, Pimpri Chinchwad - MPCB",16-12-2025 21:00,18.616318,73.765797,NO2,39,127,73
India,Maharashtra,Pimpri-Chinchwad,"Thergaon, Pimpri Chinchwad - MPCB",16-12-2025 21:00,18.616318,73.765797,SO2,2,6,4
India,Maharashtra,Pimpri-Chinchwad,"Thergaon, Pimpri Chinchwad - MPCB",16-12-2025 21:00,18.616318,73.765797,OZONE,1,68,37
India,Maharashtra,Navi Mumbai,"Nerul, Navi Mumbai - MPCB",16-12-2025 21:00,19.008751,73.01662,NH3,4,5,4
India,Maharashtra,Navi Mumbai,"Nerul, Navi Mumbai - MPCB",16-12-2025 21:00,19.008751,73.01662,SO2,NA,NA,NA
India,Maharashtra,Navi Mumbai,"Sector-2E Kalamboli, Navi Mumbai - MPCB",16-12-2025 21:00,19.02579,73.10297,PM2.5,51,205,94
India,Maharashtra,Navi Mumbai,"Sector-2E Kalamboli, Navi Mumbai - MPCB",16-12-2025 21:00,19.02579,73.10297,PM10,53,279,128
India,Maharashtra,Navi Mumbai,"Sector-2E Kalamboli, Navi Mumbai - MPCB",16-12-2025 21:00,19.02579,73.10297,CO,2,107,45
India,Maharashtra,Navi Mumbai,"Tondare-Taloja, Navi Mumbai - MPCB",16-12-2025 21:00,19.063,73.1209,PM10,53,198,121
India,Maharashtra,Navi Mumbai,"Tondare-Taloja, Navi Mumbai - MPCB",16-12-2025 21:00,19.063,73.1209,CO,8,48,28
India,Maharashtra,Navi Mumbai,"Tondare-Taloja, Navi Mumbai - MPCB",16-12-2025 21:00,19.063,73.1209,OZONE,10,12,11
India,Maharashtra,Parbhani,"Masoom Colony, Parbhani - MPCB",16-12-2025 21:00,19.265594,76.761463,PM2.5,79,161,117
India,Maharashtra,Nashik,"MIDC Ambad, Nashik - MPCB",16-12-2025 21:00,19.95022,73.73148,OZONE,20,90,58
India,Maharashtra,Nashik,"Pandav Nagari, Nashik - MPCB",16-12-2025 21:00,19.9591346,73.7788008,PM10,49,220,96
India,Maharashtra,Navi Mumbai,"Kopripada-Vashi, Navi Mumbai - MPCB",16-12-2025 21:00,19.090337,73.014232,PM2.5,58,332,87
India,Maharashtra,Navi Mumbai,"Kopripada-Vashi, Navi Mumbai - MPCB",16-12-2025 21:00,19.090337,73.014232,NH3,2,16,5
India,Maharashtra,Navi Mumbai,"Mahape, Navi Mumbai - MPCB",16-12-2025 21:00,19.1135051,73.008978,PM2.5,13,86,24
India,Maharashtra,Navi Mumbai,"Mahape, Navi Mumbai - MPCB",16-12-2025 21:00,19.1135051,73.008978,PM10,103,187,131
India,Maharashtra,Navi Mumbai,"Mahape, Navi Mumbai - MPCB",16-12-2025 21:00,19.1135051,73.008978,SO2,21,24,23
India,Maharashtra,Navi Mumbai,"Mahape, Navi Mumbai - MPCB",16-12-2025 21:00,19.1135051,73.008978,OZONE,8,12,10
India,Maharashtra,Sangli,"Vijay Nagar, Sangli - MPCB",16-12-2025 21:00,16.5038,74.3623,OZONE,3,58,41
India,Maharashtra,Solapur,"Dnyaneshwar Nagar, Solapur - MPCB",16-12-2025 21:00,17.6336264,75.9132495,PM10,69,149,98
India,Maharashtra,Solapur,"Dnyaneshwar Nagar, Solapur - MPCB",16-12-2025 21:00,17.6336264,75.9132495,SO2,1,8,4
India,Maharashtra,Solapur,"Dnyaneshwar Nagar, Solapur - MPCB",16-12-2025 21:00,17.6336264,75.9132495,OZONE,14,67,47
India,Maharashtra,Solapur,"Ratandeep Housing Society, Solapur - MPCB",16-12-2025 21:00,17.65439,75.90649,NH3,2,9,3
India,Maharashtra,Solapur,"Ratandeep Housing Society, Solapur - MPCB",16-12-2025 21:00,17.65439,75.90649,SO2,7,21,12
India,Maharashtra,Pune,"Panchawati_Pashan, Pune - IITM",16-12-2025 21:00,18.536457,73.805454,CO,31,51,40
India,Maharashtra,Pune,"Revenue Colony-Shivajinagar, Pune - IITM",16-12-2025 21:00,18.530085,73.849598,PM10,118,293,208
India,Maharashtra,Pune,"Revenue Colony-Shivajinagar, Pune - IITM",16-12-2025 21:00,18.530085,73.849598,NO2,81,154,105
India,Maharashtra,Pune,"Revenue Colony-Shivajinagar, Pune - IITM",16-12-2025 21:00,18.530085,73.849598,SO2,3,15,8
India,Maharashtra,Pune,"Transport Nagar-Nigdi, Pune - IITM",16-12-2025 21:00,18.664282,73.763966,OZONE,17,76,51
India,Nagaland,Kohima,"PWD Junction, Kohima - NPCB",16-12-2025 21:00,25.6635413,94.0989878,SO2,73,75,74
India,Odisha,Balasore,"Kalidaspur, Balasore - OSPCB",16-12-2025 21:00,21.51161,86.89088,PM2.5,140,332,213
India,Odisha,Balasore,"Kalidaspur, Balasore - OSPCB",16-12-2025 21:00,21.51161,86.89088,PM10,110,240,138
India,Odisha,Balasore,"Kalidaspur, Balasore - OSPCB",16-12-2025 21:00,21.51161,86.89088,NO2,12,95,35
India,Maharashtra,Thane,"Kasarvadavali, Thane - MPCB",16-12-2025 21:00,19.26777,72.97182,OZONE,1,104,59
India,Maharashtra,Ulhasnagar,"Sidhi Vinayak Nagar, Ulhasnagar - MPCB",16-12-2025 21:00,19.235581,73.159121,PM10,63,252,143
India,Maharashtra,Ulhasnagar,"Sidhi Vinayak Nagar, Ulhasnagar - MPCB",16-12-2025 21:00,19.235581,73.159121,NO2,14,31,22
India,Maharashtra,Ulhasnagar,"Sidhi Vinayak Nagar, Ulhasnagar - MPCB",16-12-2025 21:00,19.235581,73.159121,SO2,3,24,8
India,Meghalaya,Shillong,"JN Stadium, Shillong - Meghalaya PCB",16-12-2025 21:00,25.5803419,91.8942571,SO2,20,28,25
India,Mizoram,Aizawl,"Sikulpuikawn, Aizawl - Mizoram PCB",16-12-2025 21:00,23.7176342,92.7192841,PM10,35,39,36
India,Mizoram,Aizawl,"Sikulpuikawn, Aizawl - Mizoram PCB",16-12-2025 21:00,23.7176342,92.7192841,CO,3,4,3
India,Maharashtra,Pune,"Dhankawadi, Pune - IITM",16-12-2025 21:00,18.459883,73.852193,PM10,77,151,118
India,Maharashtra,Pune,"Dhankawadi, Pune - IITM",16-12-2025 21:00,18.459883,73.852193,NO2,NA,NA,NA
India,Maharashtra,Pune,"Mhada Colony, Pune - IITM",16-12-2025 21:00,18.57304,73.927715,PM10,116,222,159
India,Punjab,Rupnagar,"Ratanpura, Rupnagar - Ambuja Cements",16-12-2025 21:00,31.0325454,76.5623046,PM2.5,2,289,78
India,Punjab,Rupnagar,"Ratanpura, Rupnagar - Ambuja Cements",16-12-2025 21:00,31.0325454,76.5623046,NO2,NA,NA,NA
India,Rajasthan,Ajmer,"Civil Lines,  Ajmer - RSPCB",16-12-2025 21:00,26.470859,74.646594,NH3,3,4,4
India,Rajasthan,Ajmer,"Civil Lines,  Ajmer - RSPCB",16-12-2025 21:00,26.470859,74.646594,SO2,14,26,20
India,Rajasthan,Ajmer,"Civil Lines,  Ajmer - RSPCB",16-12-2025 21:00,26.470859,74.646594,OZONE,3,7,5
India,Rajasthan,Alwar,"Moti Doongri, Alwar - RSPCB",16-12-2025 21:00,27.554793,76.611536,PM2.5,33,85,53
India,Rajasthan,Alwar,"Moti Doongri, Alwar - RSPCB",16-12-2025 21:00,27.554793,76.611536,PM10,43,123,89
India,Rajasthan,Alwar,"Moti Doongri, Alwar - RSPCB",16-12-2025 21:00,27.554793,76.611536,CO,18,80,54
India,Rajasthan,Alwar,"Moti Doongri, Alwar - RSPCB",16-12-2025 21:00,27.554793,76.611536,OZONE,13,33,17
India,Rajasthan,Banswara,"Rati Talai, Banswara - RSPCB",16-12-2025 21:00,23.55519,74.44001,PM10,86,177,121
India,Rajasthan,Banswara,"Rati Talai, Banswara - RSPCB",16-12-2025 21:00,23.55519,74.44001,NO2,17,107,42
India,Odisha,Rourkela,"Raghunathpali, Rourkela - OSPCB",16-12-2025 21:00,22.220833,84.809444,PM10,NA,NA,NA
India,Odisha,Rourkela,"Raghunathpali, Rourkela - OSPCB",16-12-2025 21:00,22.220833,84.809444,OZONE,1,9,4
India,Odisha,Rourkela,"Sector-2, Rourkela - OSPCB",16-12-2025 21:00,22.245,84.88111111,CO,36,48,39
India,Odisha,Suakati,"OMC Colony, Suakati - OSPCB",16-12-2025 21:00,21.606865,85.510538,SO2,4,8,5
India,Odisha,Suakati,"OMC Colony, Suakati - OSPCB",16-12-2025 21:00,21.606865,85.510538,CO,21,65,48
India,Odisha,Talcher,"Talcher Coalfields,Talcher - OSPCB",16-12-2025 21:00,20.9360711,85.1707021,NO2,NA,NA,NA
India,Odisha,Baripada,"Meher Colony, Baripada - OSPCB",16-12-2025 21:00,21.941841,86.728318,PM2.5,25,301,140
India,Odisha,Baripada,"Meher Colony, Baripada - OSPCB",16-12-2025 21:00,21.941841,86.728318,PM10,31,179,125
India,Odisha,Baripada,"Meher Colony, Baripada - OSPCB",16-12-2025 21:00,21.941841,86.728318,NH3,2,5,4
India,Odisha,Baripada,"Meher Colony, Baripada - OSPCB",16-12-2025 21:00,21.941841,86.728318,SO2,7,30,14
India,Odisha,Baripada,"Meher Colony, Baripada - OSPCB",16-12-2025 21:00,21.941841,86.728318,CO,56,107,73
India,Odisha,Bhubaneswar,"Patia, Bhubaneswar - OSPCB",16-12-2025 21:00,20.34652,85.8163,PM2.5,107,332,204
India,Odisha,Bhubaneswar,"Patia, Bhubaneswar - OSPCB",16-12-2025 21:00,20.34652,85.8163,NO2,18,107,50
India,Odisha,Tensa,"Barsua Iron Ore Mines, Tensa - OSPCB",16-12-2025 21:00,21.869985,85.167016,NH3,NA,NA,NA
India,Puducherry,Puducherry,"Jawahar Nagar, Puducherry - PPCC",16-12-2025 21:00,11.9309,79.8027,CO,27,48,34
India,Punjab,Amritsar,"Golden Temple, Amritsar - PPCB",16-12-2025 21:00,31.62,74.876512,PM10,67,119,93
India,Punjab,Amritsar,"Golden Temple, Amritsar - PPCB",16-12-2025 21:00,31.62,74.876512,NH3,5,7,6
India,Punjab,Amritsar,"Golden Temple, Amritsar - PPCB",16-12-2025 21:00,31.62,74.876512,OZONE,29,44,36
India,Rajasthan,Bharatpur,"Krishna Nagar, Bharatpur - RSPCB",16-12-2025 21:00,27.215415,77.50873,SO2,1,14,6
India,Rajasthan,Bharatpur,"Krishna Nagar, Bharatpur - RSPCB",16-12-2025 21:00,27.215415,77.50873,CO,17,149,60
India,Rajasthan,Bharatpur,"Krishna Nagar, Bharatpur - RSPCB",16-12-2025 21:00,27.215415,77.50873,OZONE,2,163,99
India,Rajasthan,Bhilwara,"Pratap Nagar, Bhilwara - RSPCB",16-12-2025 21:00,25.339605,74.618883,NH3,8,44,14
India,Rajasthan,Bhiwadi,"Vasundhara Nagar_UIT, Bhiwadi - RSPCB",16-12-2025 21:00,28.207266,76.829265,PM10,140,500,251
India,Odisha,Brajrajnagar,"GM Office, Brajrajnagar - OSPCB",16-12-2025 21:00,21.8004996,83.8396977,NO2,16,16,16
India,Odisha,Brajrajnagar,"GM Office, Brajrajnagar - OSPCB",16-12-2025 21:00,21.8004996,83.8396977,OZONE,27,31,29
India,Odisha,Byasanagar,"Ferro Chrome Colony, Byasanagar - OSPCB",16-12-2025 21:00,20.94185,86.1151,SO2,2,14,9
India,Odisha,Cuttack,"CDA Area, Cuttack - OSPCB",16-12-2025 21:00,20.48891,85.84768,NO2,27,148,65
India,Odisha,Cuttack,"CDA Area, Cuttack - OSPCB",16-12-2025 21:00,20.48891,85.84768,OZONE,3,213,117
India,Punjab,Jalandhar,"Civil Line, Jalandhar - PPCB",16-12-2025 21:00,31.321907,75.578914,NH3,3,3,2
India,Punjab,Mandi Gobindgarh,"RIMT University, Mandi Gobindgarh - PPCB",16-12-2025 21:00,30.649961,76.331442,PM2.5,163,471,334
India,Punjab,Mandi Gobindgarh,"RIMT University, Mandi Gobindgarh - PPCB",16-12-2025 21:00,30.649961,76.331442,SO2,8,20,13
India,Rajasthan,Bikaner,"MM Ground, Bikaner - RSPCB",16-12-2025 21:00,28.018792,73.292658,NO2,15,102,44
India,Rajasthan,Bundi,"New Colony, Bundi - RSPCB",16-12-2025 21:00,25.435774,75.644272,NH3,4,5,4
India,Rajasthan,Bundi,"New Colony, Bundi - RSPCB",16-12-2025 21:00,25.435774,75.644272,CO,31,110,70
India,Rajasthan,Baran,"Bamboliya, Baran - RSPCB",16-12-2025 21:00,25.106006,76.469948,CO,20,50,30
India,Rajasthan,Jaipur,"Sector-2 Murlipura, Jaipur - RSPCB",16-12-2025 21:00,26.960669,75.771817,PM2.5,72,370,228
India,Rajasthan,Jaipur,"Sector-2 Murlipura, Jaipur - RSPCB",16-12-2025 21:00,26.960669,75.771817,SO2,3,4,4
India,Rajasthan,Jaipur,"Shastri Nagar, Jaipur - RSPCB",16-12-2025 21:00,26.9502929,75.730943,PM10,83,248,143
India,Rajasthan,Jaipur,"Shastri Nagar, Jaipur - RSPCB",16-12-2025 21:00,26.9502929,75.730943,NH3,9,36,19
India,Rajasthan,Jaipur,"Shastri Nagar, Jaipur - RSPCB",16-12-2025 21:00,26.9502929,75.730943,CO,22,102,52
India,Rajasthan,Jaipur,"Shastri Nagar, Jaipur - RSPCB",16-12-2025 21:00,26.9502929,75.730943,OZONE,16,69,48
India,Rajasthan,Jaisalmer,"Sadar Bazar, Jaisalmer - RSPCB",16-12-2025 21:00,26.912329,70.909168,PM10,73,169,119
India,Rajasthan,Jaisalmer,"Sadar Bazar, Jaisalmer - RSPCB",16-12-2025 21:00,26.912329,70.909168,NH3,13,17,16
India,Rajasthan,Jaisalmer,"Sadar Bazar, Jaisalmer - RSPCB",16-12-2025 21:00,26.912329,70.909168,SO2,NA,NA,NA
India,Rajasthan,Jalore,"Mudtra Sili, Jalore - RSPCB",16-12-2025 21:00,25.344694,72.626208,PM2.5,50,270,117
India,Rajasthan,Jalore,"Mudtra Sili, Jalore - RSPCB",16-12-2025 21:00,25.344694,72.626208,NH3,4,6,5
India,Rajasthan,Jalore,"Mudtra Sili, Jalore - RSPCB",16-12-2025 21:00,25.344694,72.626208,SO2,2,12,6
India,Rajasthan,Jhalawar,"Rajlaxmi Nagar, Jhalawar - RSPCB",16-12-2025 21:00,24.588397,76.172782,PM2.5,30,399,154
India,Rajasthan,Udaipur,"Ashok Nagar, Udaipur - RSPCB",16-12-2025 21:00,24.5886166,73.6321397,CO,5,122,55
India,Rajasthan,Udaipur,"Ashok Nagar, Udaipur - RSPCB",16-12-2025 21:00,24.5886166,73.6321397,OZONE,2,53,19
India,Sikkim,Gangtok,"Zero Point GICI, Gangtok - SSPCB",16-12-2025 21:00,27.33853,88.614099,PM2.5,9,39,21
India,TamilNadu,Chennai,"Arumbakkam, Chennai - TNPCB",16-12-2025 21:00,13.0664,80.2112,PM2.5,34,236,128
India,TamilNadu,Chennai,"Gandhi Nagar_Ennore, Chennai - TNPCB",16-12-2025 21:00,13.218341,80.32027,SO2,NA,NA,NA
India,TamilNadu,Chennai,"Manali Village, Chennai - TNPCB",16-12-2025 21:00,13.1662,80.2584,PM2.5,17,192,88
India,TamilNadu,Chennai,"Manali Village, Chennai - TNPCB",16-12-2025 21:00,13.1662,80.2584,PM10,36,115,82
India,TamilNadu,Chennai,"Manali Village, Chennai - TNPCB",16-12-2025 21:00,13.1662,80.2584,NH3,1,2,2
India,Rajasthan,Hanumangarh,"Housing Board, Hanumangarh - RSPCB",16-12-2025 21:00,29.61075,74.283608,OZONE,2,67,42
India,Rajasthan,Jaipur,"Adarsh Nagar, Jaipur - RSPCB",16-12-2025 21:00,26.902909,75.836858,SO2,10,31,21
India,Rajasthan,Jaipur,"Adarsh Nagar, Jaipur - RSPCB",16-12-2025 21:00,26.902909,75.836858,OZONE,16,85,48
India,Rajasthan,Jaipur,"Mansarovar Sector-12, Jaipur - RSPCB",16-12-2025 21:00,26.843698,75.766894,PM2.5,48,329,215
India,Rajasthan,Jaipur,"Mansarovar Sector-12, Jaipur - RSPCB",16-12-2025 21:00,26.843698,75.766894,OZONE,11,155,80
India,Rajasthan,Jaipur,"Police Commissionerate, Jaipur - RSPCB",16-12-2025 21:00,26.9164092,75.7994901,NO2,63,137,110
India,Rajasthan,Jaipur,"RIICO Sitapura, Jaipur - RSPCB",16-12-2025 21:00,26.786682,75.827928,PM2.5,67,377,210
India,Rajasthan,Jaipur,"RIICO Sitapura, Jaipur - RSPCB",16-12-2025 21:00,26.786682,75.827928,NH3,6,8,7
India,Rajasthan,Kota,"Nayapura, Kota - RSPCB",16-12-2025 21:00,25.196024,75.855668,SO2,2,11,6
India,Rajasthan,Kota,"Shrinath Puram, Kota - RSPCB",16-12-2025 21:00,25.14389,75.821256,NO2,13,16,15
India,Rajasthan,Kota,"Shrinath Puram, Kota - RSPCB",16-12-2025 21:00,25.14389,75.821256,SO2,8,51,20
India,Rajasthan,Kota,"Shrinath Puram, Kota - RSPCB",16-12-2025 21:00,25.14389,75.821256,CO,28,119,68
India,Rajasthan,Nagaur,"Karni Colony, Nagaur - RSPCB",16-12-2025 21:00,27.213494,73.734444,NH3,9,18,13
India,Rajasthan,Pali,"Indira Colony Vistar, Pali - RSPCB",16-12-2025 21:00,25.771061,73.340227,PM10,93,198,130
India,Rajasthan,Pratapgarh,"Pragati Nagar, Pratapgarh - RSPCB",16-12-2025 21:00,24.041198,74.780702,NO2,17,47,27
India,Rajasthan,Dausa,"Khatikan Mohalla, Dausa - RSPCB",16-12-2025 21:00,26.895552,76.334753,PM10,73,195,124
India,Rajasthan,Dausa,"Khatikan Mohalla, Dausa - RSPCB",16-12-2025 21:00,26.895552,76.334753,SO2,1,8,4
India,Rajasthan,Dholpur,"Raja Ganj, Dholpur - RSPCB",16-12-2025 21:00,26.699557,77.898881,PM2.5,37,303,108
India,Rajasthan,Dholpur,"Raja Ganj, Dholpur - RSPCB",16-12-2025 21:00,26.699557,77.898881,NH3,1,28,7
India,Rajasthan,Dholpur,"Raja Ganj, Dholpur - RSPCB",16-12-2025 21:00,26.699557,77.898881,OZONE,10,63,37
India,Rajasthan,Dungarpur,"Bhoiwada, Dungarpur - RSPCB",16-12-2025 21:00,23.837789,73.714926,NH3,5,7,6
India,Rajasthan,Hanumangarh,"Housing Board, Hanumangarh - RSPCB",16-12-2025 21:00,29.61075,74.283608,PM2.5,57,248,113
India,Rajasthan,Jodhpur,"Mandor, Jodhpur - RSPCB",16-12-2025 21:00,26.358805,73.047444,OZONE,52,122,100
India,Rajasthan,Karauli,"Satyawati Vihar, Karauli - RSPCB",16-12-2025 21:00,26.506177,77.025989,PM10,47,162,90
India,Rajasthan,Karauli,"Satyawati Vihar, Karauli - RSPCB",16-12-2025 21:00,26.506177,77.025989,CO,46,112,68
India,Rajasthan,Kota,"Dhanmandi, Kota - RSPCB",16-12-2025 21:00,25.16409,75.858137,PM2.5,73,373,251
India,Rajasthan,Kota,"Dhanmandi, Kota - RSPCB",16-12-2025 21:00,25.16409,75.858137,CO,14,137,52
India,Rajasthan,Jodhpur,"Digari Kalan, Jodhpur - RSPCB",16-12-2025 21:00,26.29581,73.082283,NO2,9,85,31
India,Rajasthan,Jodhpur,"Digari Kalan, Jodhpur - RSPCB",16-12-2025 21:00,26.29581,73.082283,OZONE,14,140,86
India,Rajasthan,Jodhpur,"Jhalamand, Jodhpur - RSPCB",16-12-2025 21:00,26.215415,73.070156,PM2.5,35,305,118
India,Rajasthan,Jodhpur,"Jhalamand, Jodhpur - RSPCB",16-12-2025 21:00,26.215415,73.070156,CO,12,78,30
India,Rajasthan,Rajsamand,"Dhoinda, Rajsamand - RSPCB",16-12-2025 21:00,25.03636,73.883502,PM10,74,224,108
India,Rajasthan,Sawai Madhopur,"Sahu Nagar, Sawai Madhopur - RSPCB",16-12-2025 21:00,26.031443,76.359327,PM2.5,47,334,125
India,Rajasthan,Sikar,"Radhakishan Pura, Sikar - RSPCB",16-12-2025 21:00,27.608912,75.153302,PM10,75,500,207
India,Rajasthan,Sirohi,"Vedhaynath Colony, Sirohi - RSPCB",16-12-2025 21:00,24.885261,72.857549,CO,18,56,33
India,Rajasthan,Sri Ganganagar,"Old City, Sri Ganganagar - RSPCB",16-12-2025 21:00,29.931624,73.864511,CO,88,120,106
India,Telangana,Hyderabad,"ICRISAT Patancheru, Hyderabad - TSPCB",16-12-2025 21:00,17.5184,78.278777,CO,22,70,40
India,Telangana,Hyderabad,"ICRISAT Patancheru, Hyderabad - TSPCB",16-12-2025 21:00,17.5184,78.278777,OZONE,1,58,44
India,Telangana,Hyderabad,"IDA Pashamylaram, Hyderabad - TSPCB",16-12-2025 21:00,17.5316895,78.218939,PM10,38,128,86
India,Telangana,Hyderabad,"IDA Pashamylaram, Hyderabad - TSPCB",16-12-2025 21:00,17.5316895,78.218939,NH3,1,3,1
India,Telangana,Hyderabad,"IDA Pashamylaram, Hyderabad - TSPCB",16-12-2025 21:00,17.5316895,78.218939,SO2,7,14,10
India,Telangana,Hyderabad,"IDA Pashamylaram, Hyderabad - TSPCB",16-12-2025 21:00,17.5316895,78.218939,OZONE,8,28,21
India,Telangana,Hyderabad,"IITH Kandi, Hyderabad - TSPCB",16-12-2025 21:00,17.585705,78.126199,PM10,68,92,82
India,Telangana,Hyderabad,"IITH Kandi, Hyderabad - TSPCB",16-12-2025 21:00,17.585705,78.126199,NO2,11,17,14
India,Telangana,Hyderabad,"Kokapet, Hyderabad - TSPCB",16-12-2025 21:00,17.393559,78.339194,PM2.5,45,69,54
India,Telangana,Hyderabad,"Kokapet, Hyderabad - TSPCB",16-12-2025 21:00,17.393559,78.339194,PM10,81,104,90
India,Telangana,Hyderabad,"Kokapet, Hyderabad - TSPCB",16-12-2025 21:00,17.393559,78.339194,NO2,12,14,13
India,Telangana,Hyderabad,"Kokapet, Hyderabad - TSPCB",16-12-2025 21:00,17.393559,78.339194,NH3,2,4,2
India,Telangana,Hyderabad,"Kokapet, Hyderabad - TSPCB",16-12-2025 21:00,17.393559,78.339194,CO,21,40,27
India,Telangana,Hyderabad,"Kokapet, Hyderabad - TSPCB",16-12-2025 21:00,17.393559,78.339194,OZONE,14,31,26
India,Telangana,Hyderabad,"Kompally Municipal Office, Hyderabad - TSPCB",16-12-2025 21:00,17.544899,78.486949,PM2.5,42,61,57
India,Telangana,Hyderabad,"Somajiguda, Hyderabad - TSPCB",16-12-2025 21:00,17.417094,78.457437,PM2.5,102,178,135
India,Telangana,Hyderabad,"Somajiguda, Hyderabad - TSPCB",16-12-2025 21:00,17.417094,78.457437,CO,22,54,33
India,Telangana,Hyderabad,"Somajiguda, Hyderabad - TSPCB",16-12-2025 21:00,17.417094,78.457437,OZONE,6,31,23
India,Telangana,Hyderabad,"Zoo Park, Hyderabad - TSPCB",16-12-2025 21:00,17.349694,78.451437,OZONE,19,27,22
India,Tripura,Agartala,"Bardowali, Agartala - Tripura SPCB",16-12-2025 21:00,23.8175497,91.2726974,SO2,8,10,8
India,Tripura,Agartala,"Bardowali, Agartala - Tripura SPCB",16-12-2025 21:00,23.8175497,91.2726974,CO,24,37,32
India,Uttar_Pradesh,Agra,"Manoharpur, Agra - UPPCB",16-12-2025 21:00,27.23711,78.01936,NO2,24,30,27
India,Uttar_Pradesh,Agra,"Manoharpur, Agra - UPPCB",16-12-2025 21:00,27.23711,78.01936,OZONE,7,8,8
India,Uttar_Pradesh,Agra,"Rohta, Agra - UPPCB",16-12-2025 21:00,27.106972,78.000111,PM2.5,36,388,140
India,Telangana,Hyderabad,"Bollaram Industrial Area, Hyderabad - TSPCB",16-12-2025 21:00,17.540891,78.358528,NH3,3,7,5
India,Telangana,Hyderabad,"Bollaram Industrial Area, Hyderabad - TSPCB",16-12-2025 21:00,17.540891,78.358528,SO2,4,12,8
India,Telangana,Hyderabad,"Central University, Hyderabad - TSPCB",16-12-2025 21:00,17.460103,78.334361,NO2,24,54,36
India,Telangana,Hyderabad,"Central University, Hyderabad - TSPCB",16-12-2025 21:00,17.460103,78.334361,NH3,4,8,5
India,Telangana,Hyderabad,"Central University, Hyderabad - TSPCB",16-12-2025 21:00,17.460103,78.334361,SO2,8,19,12
India,Telangana,Hyderabad,"Central University, Hyderabad - TSPCB",16-12-2025 21:00,17.460103,78.334361,CO,20,73,42
India,Telangana,Hyderabad,"ECIL Kapra, Hyderabad - TSPCB",16-12-2025 21:00,17.470431,78.566959,PM10,83,104,92
India,Telangana,Hyderabad,"ECIL Kapra, Hyderabad - TSPCB",16-12-2025 21:00,17.470431,78.566959,NO2,17,54,30
India,Telangana,Hyderabad,"ECIL Kapra, Hyderabad - TSPCB",16-12-2025 21:00,17.470431,78.566959,OZONE,11,57,38
India,TamilNadu,Madurai,"Uchapatti, Madurai - TNPCB",16-12-2025 21:00,9.865935,78.022669,CO,12,16,14
India,TamilNadu,Madurai,"Uchapatti, Madurai - TNPCB",16-12-2025 21:00,9.865935,78.022669,OZONE,1,1,1
India,TamilNadu,Nagapattinam,"Velippalayam, Nagapattinam - TNPCB",16-12-2025 21:00,10.798548,79.838212,PM10,NA,NA,NA
India,TamilNadu,Nagapattinam,"Velippalayam, Nagapattinam - TNPCB",16-12-2025 21:00,10.798548,79.838212,NO2,NA,NA,NA
India,TamilNadu,Perundurai,"SIPCOT Industrial Park, Perundurai - TNPCB",16-12-2025 21:00,11.258242,77.552761,PM10,50,84,68
India,TamilNadu,Perundurai,"SIPCOT Industrial Park, Perundurai - TNPCB",16-12-2025 21:00,11.258242,77.552761,NO2,13,20,14
India,TamilNadu,Perundurai,"SIPCOT Industrial Park, Perundurai - TNPCB",16-12-2025 21:00,11.258242,77.552761,SO2,12,13,13
India,TamilNadu,Thoothukudi,"Meelavittan, Thoothukudi - TNPCB",16-12-2025 21:00,8.816428,78.099039,PM10,NA,NA,NA
India,TamilNadu,Chennai,"Manali Village, Chennai - TNPCB",16-12-2025 21:00,13.1662,80.2584,SO2,12,16,15
India,TamilNadu,Chennai,"Manali, Chennai - CPCB",16-12-2025 21:00,13.164544,80.26285,NH3,NA,NA,NA
India,TamilNadu,Chennai,"Manali, Chennai - CPCB",16-12-2025 21:00,13.164544,80.26285,OZONE,10,11,10
India,TamilNadu,Chennai,"Perungudi, Chennai - TNPCB",16-12-2025 21:00,12.9533,80.2357,SO2,1,9,4
India,TamilNadu,Chennai,"Perungudi, Chennai - TNPCB",16-12-2025 21:00,12.9533,80.2357,CO,28,78,39
India,TamilNadu,Chennai,"Royapuram, Chennai - TNPCB",16-12-2025 21:00,13.1036,80.2909,PM2.5,11,123,32
India,TamilNadu,Chennai,"Royapuram, Chennai - TNPCB",16-12-2025 21:00,13.1036,80.2909,PM10,11,93,40
India,Uttar_Pradesh,Agra,"Rohta, Agra - UPPCB",16-12-2025 21:00,27.106972,78.000111,NO2,16,18,17
India,Uttar_Pradesh,Agra,"Sanjay Palace, Agra - UPPCB",16-12-2025 21:00,27.19865833,78.00598056,SO2,16,19,17
India,Uttar_Pradesh,Agra,"Sector-3B Avas Vikas Colony, Agra - UPPCB",16-12-2025 21:00,27.19412,77.96237,SO2,10,16,14
India,Uttar_Pradesh,Agra,"Shastripuram, Agra - UPPCB",16-12-2025 21:00,27.19862,77.92066,NO2,35,36,36
India,TamilNadu,Coimbatore,"PSG College of Arts and Science, Coimbatore - TNPCB",16-12-2025 21:00,11.0328,77.0349,SO2,3,4,3
India,TamilNadu,Coimbatore,"PSG College of Arts and Science, Coimbatore - TNPCB",16-12-2025 21:00,11.0328,77.0349,OZONE,4,6,5
India,TamilNadu,Coimbatore,"SIDCO Kurichi, Coimbatore - TNPCB",16-12-2025 21:00,10.942451,76.978996,NH3,1,1,1
India,Telangana,Hyderabad,"New Malakpet, Hyderabad - TSPCB",16-12-2025 21:00,17.37206,78.50864,PM2.5,41,120,71
India,Telangana,Hyderabad,"New Malakpet, Hyderabad - TSPCB",16-12-2025 21:00,17.37206,78.50864,SO2,12,17,14
India,Telangana,Hyderabad,"Ramachandrapuram, Hyderabad - TSPCB",16-12-2025 21:00,17.528544,78.286195,PM10,62,78,66
India,TamilNadu,Dindigul,"Mendonsa Colony, Dindigul - TNPCB",16-12-2025 21:00,10.358535,77.984321,SO2,NA,NA,NA
India,TamilNadu,Madurai,"Uchapatti, Madurai - TNPCB",16-12-2025 21:00,9.865935,78.022669,NH3,NA,NA,NA
India,Uttar_Pradesh,Agra,"Shastripuram, Agra - UPPCB",16-12-2025 21:00,27.19862,77.92066,SO2,8,20,13
India,Uttar_Pradesh,Baghpat,"Sardar Patel Inter College, Baghpat - UPPCB",16-12-2025 21:00,28.964949,77.278761,PM10,115,311,203
India,Uttar_Pradesh,Baghpat,"Sardar Patel Inter College, Baghpat - UPPCB",16-12-2025 21:00,28.964949,77.278761,SO2,7,30,16
India,Uttar_Pradesh,Bareilly,"Civil Lines, Bareilly - UPPCB",16-12-2025 21:00,28.359581,79.414455,PM10,57,107,76
India,Uttar_Pradesh,Bareilly,"Rajendra Nagar, Bareilly - UPPCB",16-12-2025 21:00,28.38910936,79.42963708,NO2,9,10,9
India,Uttar_Pradesh,Bareilly,"Rajendra Nagar, Bareilly - UPPCB",16-12-2025 21:00,28.38910936,79.42963708,NH3,1,1,1
India,Uttar_Pradesh,Bulandshahr,"Yamunapuram, Bulandshahr - UPPCB",16-12-2025 21:00,28.406963,77.849831,PM2.5,58,342,267
India,Uttar_Pradesh,Bulandshahr,"Yamunapuram, Bulandshahr - UPPCB",16-12-2025 21:00,28.406963,77.849831,NO2,53,137,86
India,Uttar_Pradesh,Kanpur,"Nehru Nagar, Kanpur - UPPCB",16-12-2025 21:00,26.4703136,80.3229863,PM10,66,173,97
India,Uttar_Pradesh,Kanpur,"Nehru Nagar, Kanpur - UPPCB",16-12-2025 21:00,26.4703136,80.3229863,CO,49,76,57
India,Uttar_Pradesh,Kanpur,"Nehru Nagar, Kanpur - UPPCB",16-12-2025 21:00,26.4703136,80.3229863,OZONE,6,30,17
India,Uttar_Pradesh,Khurja,"Kalindi Kunj, Khurja - UPPCB",16-12-2025 21:00,28.2348927,77.8683002,NO2,2,7,6
India,Uttar_Pradesh,Khurja,"Kalindi Kunj, Khurja - UPPCB",16-12-2025 21:00,28.2348927,77.8683002,NH3,1,1,1
India,Uttar_Pradesh,Lucknow,"B R Ambedkar University, Lucknow - UPPCB",16-12-2025 21:00,26.766433,80.927299,NO2,21,22,22
India,Uttar_Pradesh,Lucknow,"B R Ambedkar University, Lucknow - UPPCB",16-12-2025 21:00,26.766433,80.927299,NH3,6,10,7
India,Uttar_Pradesh,Lucknow,"B R Ambedkar University, Lucknow - UPPCB",16-12-2025 21:00,26.766433,80.927299,CO,39,44,41
India,Uttar_Pradesh,Moradabad,"Buddhi Vihar, Moradabad - UPPCB",16-12-2025 21:00,28.83526,78.7446,NO2,29,29,29
India,Uttar_Pradesh,Moradabad,"Buddhi Vihar, Moradabad - UPPCB",16-12-2025 21:00,28.83526,78.7446,CO,54,68,59
India,Uttar_Pradesh,Moradabad,"Eco Herbal Park, Moradabad - UPPCB",16-12-2025 21:00,28.840739,78.697531,NH3,11,20,15
India,Uttar_Pradesh,Moradabad,"Employment Office, Moradabad - UPPCB",16-12-2025 21:00,28.88528,78.7388,SO2,20,22,21
India,Uttar_Pradesh,Moradabad,"Employment Office, Moradabad - UPPCB",16-12-2025 21:00,28.88528,78.7388,CO,31,58,46
India,Uttar_Pradesh,Moradabad,"Employment Office, Moradabad - UPPCB",16-12-2025 21:00,28.88528,78.7388,OZONE,14,15,15
India,Uttar_Pradesh,Moradabad,"Jigar Colony, Moradabad - UPPCB",16-12-2025 21:00,28.856664,78.772638,NH3,6,13,7
India,Uttar_Pradesh,Moradabad,"Jigar Colony, Moradabad - UPPCB",16-12-2025 21:00,28.856664,78.772638,CO,40,40,40
India,Uttar_Pradesh,Ghaziabad,"Vasundhara, Ghaziabad - UPPCB",16-12-2025 21:00,28.6603346,77.3572563,PM2.5,230,438,364
India,Uttar_Pradesh,Ghaziabad,"Vasundhara, Ghaziabad - UPPCB",16-12-2025 21:00,28.6603346,77.3572563,SO2,6,29,12
India,Uttar_Pradesh,Ghaziabad,"Vasundhara, Ghaziabad - UPPCB",16-12-2025 21:00,28.6603346,77.3572563,CO,42,132,46
India,Uttar_Pradesh,Greater Noida,"Knowledge Park - III, Greater Noida - UPPCB",16-12-2025 21:00,28.47272,77.482,OZONE,3,94,48
India,Uttar_Pradesh,Greater Noida,"Knowledge Park - V, Greater Noida - UPPCB",16-12-2025 21:00,28.557054,77.453663,PM2.5,163,429,319
India,Uttar_Pradesh,Greater Noida,"Knowledge Park - V, Greater Noida - UPPCB",16-12-2025 21:00,28.557054,77.453663,PM10,179,383,238
India,Uttar_Pradesh,Firozabad,"Nagla Bhau, Firozabad - UPPCB",16-12-2025 21:00,27.168897,78.37696,NO2,17,17,17
India,Uttar_Pradesh,Ghaziabad,"Indirapuram, Ghaziabad - UPPCB",16-12-2025 21:00,28.646233,77.358075,PM10,163,500,252
India,Uttar_Pradesh,Ghaziabad,"Indirapuram, Ghaziabad - UPPCB",16-12-2025 21:00,28.646233,77.358075,NO2,17,99,38
India,Uttar_Pradesh,Ghaziabad,"Indirapuram, Ghaziabad - UPPCB",16-12-2025 21:00,28.646233,77.358075,SO2,14,25,21
India,Uttar_Pradesh,Ghaziabad,"Indirapuram, Ghaziabad - UPPCB",16-12-2025 21:00,28.646233,77.358075,OZONE,3,52,35
India,Uttar_Pradesh,Ghaziabad,"Sanjay Nagar, Ghaziabad - UPPCB",16-12-2025 21:00,28.685382,77.453839,OZONE,16,74,50
India,Uttar_Pradesh,Hapur,"Anand Vihar, Hapur - UPPCB",16-12-2025 21:00,28.725645,77.749675,NO2,4,109,26
India,Uttar_Pradesh,Jhansi,"Shivaji Nagar, Jhansi - UPPCB",16-12-2025 21:00,25.4547,78.6039,CO,10,105,48
India,Uttar_Pradesh,Kanpur,"FTI Kidwai Nagar, Kanpur - UPPCB",16-12-2025 21:00,26.428282,80.327067,PM10,76,233,131
India,Uttar_Pradesh,Lucknow,"Kukrail Picnic Spot-1, Lucknow - UPPCB",16-12-2025 21:00,26.90723,80.98579,PM10,59,120,98
India,Uttar_Pradesh,Lucknow,"Lalbagh, Lucknow - CPCB",16-12-2025 21:00,26.8458805,80.9365541,PM2.5,36,332,178
India,Uttar_Pradesh,Lucknow,"Lalbagh, Lucknow - CPCB",16-12-2025 21:00,26.8458805,80.9365541,PM10,99,454,252
India,Uttar_Pradesh,Meerut,"Ganga Nagar, Meerut - UPPCB",16-12-2025 21:00,28.999264,77.7590354,SO2,22,28,23
India,Uttar_Pradesh,Meerut,"Pallavpuram Phase 2, Meerut - UPPCB",16-12-2025 21:00,29.06351,77.709723,NO2,21,63,38
India,Uttar_Pradesh,Meerut,"Pallavpuram Phase 2, Meerut - UPPCB",16-12-2025 21:00,29.06351,77.709723,NH3,2,4,3
India,Uttar_Pradesh,Moradabad,"Kashiram Nagar, Moradabad - UPPCB",16-12-2025 21:00,28.849399,78.742362,SO2,NA,NA,NA
India,Uttar_Pradesh,Moradabad,"Kashiram Nagar, Moradabad - UPPCB",16-12-2025 21:00,28.849399,78.742362,OZONE,22,27,23
India,Uttar_Pradesh,Moradabad,"Transport Nagar, Moradabad - UPPCB",16-12-2025 21:00,28.802625,78.753728,NO2,29,30,29
India,Uttar_Pradesh,Vrindavan,"Omex Eternity, Vrindavan - UPPCB",16-12-2025 21:00,27.571409,77.655757,PM10,41,164,83
India,Uttarakhand,Dehradun,"Doon University, Dehradun - UKPCB",16-12-2025 21:00,30.269444,78.044167,PM10,72,158,115
India,Uttarakhand,Dehradun,"Doon University, Dehradun - UKPCB",16-12-2025 21:00,30.269444,78.044167,CO,37,42,39
India,Uttarakhand,Kashipur,"Govt. Girls Inter College, Kashipur - UKPCB",16-12-2025 21:00,29.2124114,78.9611753,CO,34,48,46
India,Uttarakhand,Kashipur,"Govt. Girls Inter College, Kashipur - UKPCB",16-12-2025 21:00,29.2124114,78.9611753,OZONE,1,2,1
India,Uttarakhand,Rishikesh,"Shivaji Nagar, Rishikesh - UKPCB",16-12-2025 21:00,30.075911,78.2859547,PM2.5,61,208,104
India,Uttarakhand,Rishikesh,"Shivaji Nagar, Rishikesh - UKPCB",16-12-2025 21:00,30.075911,78.2859547,SO2,3,3,3
India,Uttarakhand,Rishikesh,"Shivaji Nagar, Rishikesh - UKPCB",16-12-2025 21:00,30.075911,78.2859547,OZONE,25,27,26
India,West_Bengal,Asansol,"Asansol Court Area, Asansol - WBPCB",16-12-2025 21:00,23.685297,86.945968,PM2.5,131,240,173
India,West_Bengal,Asansol,"Asansol Court Area, Asansol - WBPCB",16-12-2025 21:00,23.685297,86.945968,PM10,113,153,132
India,West_Bengal,Kolkata,"Jadavpur, Kolkata - WBPCB",16-12-2025 21:00,22.49929,88.36917,OZONE,9,31,18
India,West_Bengal,Kolkata,"Rabindra Bharati University, Kolkata - WBPCB",16-12-2025 21:00,22.627847,88.380669,PM2.5,84,238,137
India,West_Bengal,Kolkata,"Rabindra Bharati University, Kolkata - WBPCB",16-12-2025 21:00,22.627847,88.380669,NH3,12,13,12
India,West_Bengal,Kolkata,"Rabindra Sarobar, Kolkata - WBPCB",16-12-2025 21:00,22.51106,88.35142,OZONE,2,112,57
India,West_Bengal,Kolkata,"Victoria, Kolkata - WBPCB",16-12-2025 21:00,22.5448082,88.3403691,NO2,21,21,21
India,West_Bengal,Kolkata,"Victoria, Kolkata - WBPCB",16-12-2025 21:00,22.5448082,88.3403691,NH3,5,5,5
India,West_Bengal,Kolkata,"Victoria, Kolkata - WBPCB",16-12-2025 21:00,22.5448082,88.3403691,CO,15,83,34
India,West_Bengal,Siliguri,"Ward-32 Bapupara, Siliguri - WBPCB",16-12-2025 21:00,26.6879226,88.4152495,PM10,47,152,88
India,West_Bengal,Siliguri,"Ward-32 Bapupara, Siliguri - WBPCB",16-12-2025 21:00,26.6879226,88.4152495,SO2,10,17,15
India,Uttar_Pradesh,Noida,"Sector - 62, Noida - IMD",16-12-2025 21:00,28.6245479,77.3577104,NO2,33,79,50
India,Uttar_Pradesh,Noida,"Sector - 62, Noida - IMD",16-12-2025 21:00,28.6245479,77.3577104,CO,32,110,42
India,Uttar_Pradesh,Noida,"Sector - 62, Noida - IMD",16-12-2025 21:00,28.6245479,77.3577104,OZONE,29,84,58
India,Uttar_Pradesh,Noida,"Sector-116, Noida - UPPCB",16-12-2025 21:00,28.56923,77.393848,PM10,134,407,217
India,Uttar_Pradesh,Noida,"Sector-116, Noida - UPPCB",16-12-2025 21:00,28.56923,77.393848,OZONE,7,228,136
India,Uttar_Pradesh,Prayagraj,"Jhunsi, Prayagraj - UPPCB",16-12-2025 21:00,25.425602,81.917152,NH3,5,5,5
India,Uttar_Pradesh,Prayagraj,"Jhunsi, Prayagraj - UPPCB",16-12-2025 21:00,25.425602,81.917152,CO,20,106,31
India,Uttar_Pradesh,Prayagraj,"Motilal Nehru NIT, Prayagraj - UPPCB",16-12-2025 21:00,25.494,81.863,CO,28,68,36
India,West_Bengal,Howrah,"Padmapukur, Howrah - WBPCB",16-12-2025 21:00,22.5687319,88.2797276,PM10,152,316,215
India,West_Bengal,Howrah,"Padmapukur, Howrah - WBPCB",16-12-2025 21:00,22.5687319,88.2797276,NO2,9,24,16
India,West_Bengal,Kolkata,"Ballygunge, Kolkata - WBPCB",16-12-2025 21:00,22.5367507,88.3638022,NH3,7,13,9
India,West_Bengal,Kolkata,"Bidhannagar, Kolkata - WBPCB",16-12-2025 21:00,22.58157048,88.41002457,PM10,103,177,135
India,West_Bengal,Kolkata,"Bidhannagar, Kolkata - WBPCB",16-12-2025 21:00,22.58157048,88.41002457,NO2,1,39,23
India,West_Bengal,Kolkata,"Fort William, Kolkata - WBPCB",16-12-2025 21:00,22.55664,88.342674,OZONE,24,89,59
India,Uttar_Pradesh,Moradabad,"Transport Nagar, Moradabad - UPPCB",16-12-2025 21:00,28.802625,78.753728,NH3,5,6,5
India,Uttar_Pradesh,Muzaffarnagar,"New Mandi, Muzaffarnagar - UPPCB",16-12-2025 21:00,29.4723508,77.7194031,NH3,18,30,23
India,Uttar_Pradesh,Noida,"Sector - 125, Noida - UPPCB",16-12-2025 21:00,28.5447608,77.3231257,PM2.5,191,500,349
India,Uttar_Pradesh,Noida,"Sector - 125, Noida - UPPCB",16-12-2025 21:00,28.5447608,77.3231257,PM10,124,500,275
India,Uttar_Pradesh,Noida,"Sector - 125, Noida - UPPCB",16-12-2025 21:00,28.5447608,77.3231257,NO2,20,122,72
India,Uttar_Pradesh,Noida,"Sector - 125, Noida - UPPCB",16-12-2025 21:00,28.5447608,77.3231257,SO2,5,13,8
India,Uttar_Pradesh,Prayagraj,"Nagar Nigam, Prayagraj - UPPCB",16-12-2025 21:00,25.44919916,81.82735986,CO,34,90,45
India,Uttar_Pradesh,Varanasi,"Ardhali Bazar, Varanasi - UPPCB",16-12-2025 21:00,25.3505986,82.9083074,PM2.5,60,251,141
India,Uttar_Pradesh,Varanasi,"Ardhali Bazar, Varanasi - UPPCB",16-12-2025 21:00,25.3505986,82.9083074,NO2,79,102,93
India,Uttar_Pradesh,Varanasi,"IESD Banaras Hindu University, Varanasi - UPPCB",16-12-2025 21:00,25.262326,82.995408,NO2,2,2,2
India,Uttar_Pradesh,Varanasi,"Maldahiya, Varanasi - UPPCB",16-12-2025 21:00,25.32393,82.99687,SO2,26,29,27
India,West_Bengal,Howrah,"Belur Math, Howrah - WBPCB",16-12-2025 21:00,22.629801,88.352017,SO2,8,32,17
India,West_Bengal,Howrah,"Botanical Garden, Howrah - WBPCB",16-12-2025 21:00,22.554954,88.292568,NO2,8,20,11
India,West_Bengal,Howrah,"Botanical Garden, Howrah - WBPCB",16-12-2025 21:00,22.554954,88.292568,NH3,2,3,2
India,West_Bengal,Howrah,"Dasnagar, Howrah - WBPCB",16-12-2025 21:00,22.6025571,88.3105664,NO2,17,88,52
India,West_Bengal,Howrah,"Ghusuri, Howrah - WBPCB",16-12-2025 21:00,22.611968,88.347422,PM2.5,219,446,312
India,West_Bengal,Asansol,"Evelyn Lodge, Asansol - WBPCB",16-12-2025 21:00,23.697936,86.944395,NO2,11,65,28
India,West_Bengal,Asansol,"Evelyn Lodge, Asansol - WBPCB",16-12-2025 21:00,23.697936,86.944395,CO,16,78,37
India,West_Bengal,Asansol,"Mahabir Colliery, Asansol - WBPCB",16-12-2025 21:00,23.618183,87.105718,OZONE,6,53,32
India,West_Bengal,Asansol,"Trivenidevi Bhalotia College, Asansol - WBPCB",16-12-2025 21:00,23.616515,87.119133,OZONE,8,14,12
India,West_Bengal,Durgapur,"PCBL Residential Complex, Durgapur - WBPCB",16-12-2025 21:00,23.508764,87.35444,NH3,7,10,9
India,West_Bengal,Durgapur,"Womens College_City Center, Durgapur - WBPCB (Formerly known as Sidhu Kanhu Indoor Stadium)",16-12-2025 21:00,23.549395,87.300496,PM2.5,56,220,116
India,Andhra_Pradesh,Visakhapatnam,"GVM Corporation, Visakhapatnam - APPCB",16-12-2025 21:00,17.72,83.3,OZONE,49,84,72
India,Arunachal_Pradesh,Naharlagun,"Naharlagun, Naharlagun - APSPCB",16-12-2025 21:00,27.103358,93.679645,NO2,6,7,7
India,Assam,Byrnihat,"Central Academy for SFS, Byrnihat - PCBA",16-12-2025 21:00,26.071318,91.87488,NO2,2,9,7
India,Assam,Byrnihat,"Central Academy for SFS, Byrnihat - PCBA",16-12-2025 21:00,26.071318,91.87488,OZONE,15,40,26
India,Assam,Guwahati,"LGBI Airport, Guwahati - PCBA",16-12-2025 21:00,26.10887,91.589544,PM2.5,65,142,92
India,Assam,Guwahati,"LGBI Airport, Guwahati - PCBA",16-12-2025 21:00,26.10887,91.589544,NO2,13,89,18
India,Assam,Guwahati,"LGBI Airport, Guwahati - PCBA",16-12-2025 21:00,26.10887,91.589544,SO2,2,22,13
India,Assam,Guwahati,"Pan Bazaar, Guwahati - PCBA",16-12-2025 21:00,26.1875,91.744194,CO,13,88,39
India,Assam,Guwahati,"Railway Colony, Guwahati - PCBA",16-12-2025 21:00,26.181742,91.78063,PM2.5,47,383,228
India,Assam,Nalbari,"Bata Chowk, Nalbari - PCBA",16-12-2025 21:00,26.446912,91.439057,PM2.5,129,184,154
India,Assam,Nalbari,"Bata Chowk, Nalbari - PCBA",16-12-2025 21:00,26.446912,91.439057,NO2,14,15,14
India,Assam,Nalbari,"Bata Chowk, Nalbari - PCBA",16-12-2025 21:00,26.446912,91.439057,SO2,6,8,8
India,Assam,Silchar,"Tarapur, Silchar - PCBA",16-12-2025 21:00,24.82827,92.79525,PM2.5,35,80,54
India,Assam,Silchar,"Tarapur, Silchar - PCBA",16-12-2025 21:00,24.82827,92.79525,NO2,20,25,23
India,Assam,Silchar,"Tarapur, Silchar - PCBA",16-12-2025 21:00,24.82827,92.79525,NH3,1,1,1
India,Assam,Silchar,"Tarapur, Silchar - PCBA",16-12-2025 21:00,24.82827,92.79525,SO2,4,9,6
India,Assam,Sivasagar,"Girls College, Sivasagar - PCBA",16-12-2025 21:00,26.987634,94.636574,PM10,38,98,66
India,Assam,Sivasagar,"Girls College, Sivasagar - PCBA",16-12-2025 21:00,26.987634,94.636574,NO2,30,51,40
India,Assam,Sivasagar,"Girls College, Sivasagar - PCBA",16-12-2025 21:00,26.987634,94.636574,SO2,8,14,11
India,Bihar,Araria,"Kharahiya Basti, Araria - BSPCB",16-12-2025 21:00,26.146529,87.454184,SO2,3,21,12
India,Bihar,Araria,"Kharahiya Basti, Araria - BSPCB",16-12-2025 21:00,26.146529,87.454184,CO,4,34,17
India,Bihar,Arrah,"New DM Office, Arrah - BSPCB",16-12-2025 21:00,25.5626095,84.663264,OZONE,5,11,8
India,Bihar,Aurangabad,"Gurdeo Nagar, Aurangabad - BSPCB",16-12-2025 21:00,24.75746,84.366208,PM10,108,306,151
India,Bihar,Begusarai,"Lohiyanagar, Begusarai - BSPCB",16-12-2025 21:00,25.42742023,86.13886079,OZONE,9,57,28
India,Bihar,Bettiah,"Kamalnath Nagar, Bettiah - BSPCB",16-12-2025 21:00,26.80365,84.51954,PM2.5,50,163,91
India,Bihar,Bettiah,"Kamalnath Nagar, Bettiah - BSPCB",16-12-2025 21:00,26.80365,84.51954,NO2,7,9,8
India,Bihar,Bettiah,"Kamalnath Nagar, Bettiah - BSPCB",16-12-2025 21:00,26.80365,84.51954,NH3,1,1,1
India,Bihar,Bhagalpur,"DM Office_Kachari Chowk, Bhagalpur - BSPCB",16-12-2025 21:00,25.251013,86.989001,PM2.5,42,100,72
India,Bihar,Bhagalpur,"DM Office_Kachari Chowk, Bhagalpur - BSPCB",16-12-2025 21:00,25.251013,86.989001,PM10,56,117,86
India,Andhra_Pradesh,Vijayawada,"HB Colony, Vijayawada - APPCB",16-12-2025 21:00,16.536107,80.594233,CO,32,42,37
India,Andhra_Pradesh,Vijayawada,"Rajiv Gandhi Park, Vijayawada - APPCB",16-12-2025 21:00,16.509717,80.612222,NH3,4,8,7
India,Andhra_Pradesh,Vijayawada,"Rajiv Gandhi Park, Vijayawada - APPCB",16-12-2025 21:00,16.509717,80.612222,CO,32,35,33
India,Andhra_Pradesh,Vijayawada,"Rajiv Nagar, Vijayawada - APPCB",16-12-2025 21:00,16.554731,80.64911,SO2,14,18,15
India,Andhra_Pradesh,Vijayawada,"Rajiv Nagar, Vijayawada - APPCB",16-12-2025 21:00,16.554731,80.64911,CO,32,46,34
India,Andhra_Pradesh,Visakhapatnam,"GVM Corporation, Visakhapatnam - APPCB",16-12-2025 21:00,17.72,83.3,PM2.5,132,226,176
India,Andhra_Pradesh,Visakhapatnam,"GVM Corporation, Visakhapatnam - APPCB",16-12-2025 21:00,17.72,83.3,PM10,114,150,131
India,Andhra_Pradesh,Visakhapatnam,"GVM Corporation, Visakhapatnam - APPCB",16-12-2025 21:00,17.72,83.3,NO2,13,86,43
India,Bihar,Gaya,"Collectorate, Gaya - BSPCB",16-12-2025 21:00,24.7955,84.9994,CO,40,109,76
India,Bihar,Gaya,"SFTI Kusdihra, Gaya - BSPCB",16-12-2025 21:00,24.762518,84.982348,PM2.5,73,97,82
India,Bihar,Hajipur,"Industrial Area, Hajipur - BSPCB",16-12-2025 21:00,25.697189,85.2459,PM2.5,173,254,216
India,Bihar,Hajipur,"Industrial Area, Hajipur - BSPCB",16-12-2025 21:00,25.697189,85.2459,CO,4,49,29
India,Bihar,Hajipur,"Industrial Area, Hajipur - BSPCB",16-12-2025 21:00,25.697189,85.2459,OZONE,5,124,76
India,Bihar,Katihar,"Mirchaibari, Katihar - BSPCB",16-12-2025 21:00,25.560083,87.553265,PM2.5,52,190,104
India,Bihar,Katihar,"Mirchaibari, Katihar - BSPCB",16-12-2025 21:00,25.560083,87.553265,PM10,47,121,88
India,Andhra_Pradesh,Tirumala,"Toll Gate, Tirumala - APPCB",16-12-2025 21:00,13.67,79.35,NH3,1,1,1
India,Andhra_Pradesh,Tirumala,"Toll Gate, Tirumala - APPCB",16-12-2025 21:00,13.67,79.35,CO,4,70,42
India,Andhra_Pradesh,Tirumala,"Toll Gate, Tirumala - APPCB",16-12-2025 21:00,13.67,79.35,OZONE,1,17,7
India,Andhra_Pradesh,Tirupati,"Vaikuntapuram, Tirupati - APPCB",16-12-2025 21:00,13.615387,79.40923,SO2,15,24,18
India,Andhra_Pradesh,Tirupati,"Vaikuntapuram, Tirupati - APPCB",16-12-2025 21:00,13.615387,79.40923,CO,27,38,32
India,Andhra_Pradesh,Vijayawada,"HB Colony, Vijayawada - APPCB",16-12-2025 21:00,16.536107,80.594233,NO2,16,20,18
India,Andhra_Pradesh,Amaravati,"Secretariat, Amaravati - APPCB",16-12-2025 21:00,16.5150833,80.5181667,OZONE,5,64,48
India,Andhra_Pradesh,Chittoor,"Gangineni Cheruvu, Chittoor - APPCB",16-12-2025 21:00,13.20488,79.097889,CO,42,79,58
India,Andhra_Pradesh,Chittoor,"Gangineni Cheruvu, Chittoor - APPCB",16-12-2025 21:00,13.20488,79.097889,OZONE,51,57,55
India,Andhra_Pradesh,Kadapa,"Yerramukkapalli, Kadapa - APPCB",16-12-2025 21:00,14.465052,78.824187,NO2,20,26,24
India,Assam,Guwahati,"Railway Colony, Guwahati - PCBA",16-12-2025 21:00,26.181742,91.78063,SO2,34,36,35
India,Assam,Nagaon,"Christianpatty, Nagaon - PCBA",16-12-2025 21:00,26.349082,92.68449,NO2,1,1,1
India,Assam,Nagaon,"Christianpatty, Nagaon - PCBA",16-12-2025 21:00,26.349082,92.68449,NH3,4,4,4
India,Bihar,Bhagalpur,"Mayaganj, Bhagalpur - BSPCB",16-12-2025 21:00,25.265194,87.012947,NO2,6,8,7
India,Bihar,Gaya,"Collectorate, Gaya - BSPCB",16-12-2025 21:00,24.7955,84.9994,PM2.5,92,301,153
India,Andaman and Nicobar,Sri Vijaya Puram,"Police Line, Sri Vijaya Puram - ANPCC",16-12-2025 21:00,11.654054,92.734055,PM10,24,70,36
India,Chhattisgarh,Raipur,"Krishak Nagar, Raipur - CECB",16-12-2025 21:00,21.237755,81.705301,NH3,2,2,2
India,Chhattisgarh,Raipur,"Siltara Phase-II, Raipur - CECB",16-12-2025 21:00,21.371751,81.664929,PM10,NA,NA,NA
India,Chhattisgarh,Raipur,"Siltara Phase-II, Raipur - CECB",16-12-2025 21:00,21.371751,81.664929,SO2,3,13,6
India,Chhattisgarh,Tumidih,"OP Jindal Industrial Park, Tumidih - CECB",16-12-2025 21:00,22.06631475,83.33820077,SO2,5,17,8
India,Chhattisgarh,Tumidih,"OP Jindal Industrial Park, Tumidih - CECB",16-12-2025 21:00,22.06631475,83.33820077,OZONE,5,161,77
India,Delhi,Delhi,"Alipur, Delhi - DPCC",16-12-2025 21:00,28.815329,77.15301,PM10,153,426,255
India,Delhi,Delhi,"Alipur, Delhi - DPCC",16-12-2025 21:00,28.815329,77.15301,SO2,2,7,4
India,Delhi,Delhi,"Anand Vihar, Delhi - DPCC",16-12-2025 21:00,28.647622,77.315809,PM2.5,113,453,348
India,Bihar,Patna,"Samanpura, Patna - BSPCB",16-12-2025 21:00,25.596727,85.085624,SO2,3,4,4
India,Bihar,Purnia,"Mariam Nagar, Purnia - BSPCB",16-12-2025 21:00,25.366336,87.117468,PM10,25,105,67
India,Bihar,Purnia,"Mariam Nagar, Purnia - BSPCB",16-12-2025 21:00,25.366336,87.117468,NO2,4,6,6
India,Bihar,Purnia,"Mariam Nagar, Purnia - BSPCB",16-12-2025 21:00,25.366336,87.117468,SO2,13,18,16
India,Bihar,Rajgir,"Dangi Tola, Rajgir - BSPCB",16-12-2025 21:00,25.0328,85.41948,CO,31,105,94
India,Bihar,Saharsa,"Police Line, Saharsa - BSPCB",16-12-2025 21:00,25.892357,86.590325,NO2,5,8,7
India,Bihar,Samastipur,"DM Office_Kasipur, Samastipur - BSPCB",16-12-2025 21:00,25.859655,85.77944,PM2.5,35,140,53
India,Bihar,Samastipur,"DM Office_Kasipur, Samastipur - BSPCB",16-12-2025 21:00,25.859655,85.77944,NO2,8,10,9
India,Bihar,Samastipur,"DM Office_Kasipur, Samastipur - BSPCB",16-12-2025 21:00,25.859655,85.77944,SO2,20,28,25
India,Bihar,Sasaram,"Dada Peer, Sasaram - BSPCB",16-12-2025 21:00,24.952822,84.002396,NO2,2,4,2
India,Bihar,Siwan,"Chitragupta Nagar, Siwan - BSPCB",16-12-2025 21:00,26.2271665,84.3570427,OZONE,5,6,5
India,Chandigarh,Chandigarh,"Sector 22, Chandigarh - CPCC",16-12-2025 21:00,30.735567,76.775714,PM2.5,88,318,170
India,Chandigarh,Chandigarh,"Sector 22, Chandigarh - CPCC",16-12-2025 21:00,30.735567,76.775714,NH3,13,17,15
India,Chandigarh,Chandigarh,"Sector-25, Chandigarh - CPCC",16-12-2025 21:00,30.751462,76.762879,PM2.5,97,158,129
India,Chhattisgarh,Kunjemura,"OP Jindal School, Kunjemura - CECB",16-12-2025 21:00,22.12665,83.483212,CO,40,78,51
India,Chhattisgarh,Milupara,"Govt. Higher Secondary School, Milupara - CECB",16-12-2025 21:00,22.1910172,83.5197009,CO,4,78,44
India,Chhattisgarh,Milupara,"Govt. Higher Secondary School, Milupara - CECB",16-12-2025 21:00,22.1910172,83.5197009,OZONE,2,146,81
India,Chhattisgarh,Raipur,"AIIMS, Raipur - CECB",16-12-2025 21:00,21.258815,81.578979,NO2,59,97,82
India,Chhattisgarh,Raipur,"Bhatagaon New ISBT, Raipur - CECB",16-12-2025 21:00,21.219665,81.630094,SO2,6,32,9
India,Chhattisgarh,Raipur,"Krishak Nagar, Raipur - CECB",16-12-2025 21:00,21.237755,81.705301,PM10,53,109,90
India,Chhattisgarh,Bhilai,"Hathkhoj, Bhilai - CECB",16-12-2025 21:00,21.224231,81.40835,CO,37,105,57
India,Chhattisgarh,Chhal,"Nawapara SECL Colony, Chhal - CECB",16-12-2025 21:00,22.118125,83.140608,PM10,39,240,100
India,Chhattisgarh,Chhal,"Nawapara SECL Colony, Chhal - CECB",16-12-2025 21:00,22.118125,83.140608,NH3,5,5,5
India,Chhattisgarh,Korba,"Rampur, Korba - CECB",16-12-2025 21:00,22.368195,82.746431,PM10,65,87,67
India,Chhattisgarh,Korba,"Rampur, Korba - CECB",16-12-2025 21:00,22.368195,82.746431,SO2,8,89,29
India,Chhattisgarh,Korba,"Urja Nagar, Korba - CECB",16-12-2025 21:00,22.348441,82.549611,PM2.5,NA,NA,NA
India,Chhattisgarh,Korba,"Urja Nagar, Korba - CECB",16-12-2025 21:00,22.348441,82.549611,PM10,NA,NA,NA
India,Bihar,Patna,"Govt. High School Shikarpur, Patna - BSPCB",16-12-2025 21:00,25.592539,85.227158,NO2,10,39,26
India,Bihar,Patna,"Govt. High School Shikarpur, Patna - BSPCB",16-12-2025 21:00,25.592539,85.227158,SO2,13,79,19
India,Bihar,Patna,"IGSC Planetarium Complex, Patna - BSPCB",16-12-2025 21:00,25.610369,85.132568,NO2,NA,NA,NA
India,Bihar,Patna,"IGSC Planetarium Complex, Patna - BSPCB",16-12-2025 21:00,25.610369,85.132568,OZONE,28,29,28
India,Bihar,Patna,"Rajbansi Nagar, Patna - BSPCB",16-12-2025 21:00,25.599486,85.113666,PM2.5,90,190,130
India,Bihar,Patna,"Samanpura, Patna - BSPCB",16-12-2025 21:00,25.596727,85.085624,PM2.5,NA,NA,NA
India,Bihar,Patna,"Samanpura, Patna - BSPCB",16-12-2025 21:00,25.596727,85.085624,NO2,20,21,21
India,Chandigarh,Chandigarh,"Sector-25, Chandigarh - CPCC",16-12-2025 21:00,30.751462,76.762879,NH3,1,2,2
India,Chandigarh,Chandigarh,"Sector-25, Chandigarh - CPCC",16-12-2025 21:00,30.751462,76.762879,SO2,6,13,9
India,Chandigarh,Chandigarh,"Sector-25, Chandigarh - CPCC",16-12-2025 21:00,30.751462,76.762879,OZONE,1,76,64
India,Chhattisgarh,Bhilai,"32Bungalows, Bhilai - CECB",16-12-2025 21:00,21.194815,81.31477,PM10,63,118,92
India,Chhattisgarh,Bhilai,"32Bungalows, Bhilai - CECB",16-12-2025 21:00,21.194815,81.31477,NH3,NA,NA,NA
India,Bihar,Kishanganj,"SDM Office_Khagra, Kishanganj - BSPCB",16-12-2025 21:00,26.0881305,87.93840336,PM2.5,35,47,42
India,Bihar,Motihari,"Gandak Colony, Motihari - BSPCB",16-12-2025 21:00,26.63086,84.90051,PM10,42,159,106
India,Bihar,Motihari,"Gandak Colony, Motihari - BSPCB",16-12-2025 21:00,26.63086,84.90051,NH3,3,3,3
India,Bihar,Muzaffarpur,"Buddha Colony, Muzaffarpur - BSPCB",16-12-2025 21:00,26.11442,85.39813,CO,52,116,71
India,Bihar,Patna,"DRM Office Danapur, Patna - BSPCB",16-12-2025 21:00,25.586562,85.043586,PM10,117,278,172
India,Delhi,Delhi,"Vivek Vihar, Delhi - DPCC",16-12-2025 21:00,28.672342,77.31526,OZONE,3,87,56
India,Delhi,Delhi,"Wazirpur, Delhi - DPCC",16-12-2025 21:00,28.699793,77.165453,PM10,177,478,331
India,Delhi,Delhi,"Wazirpur, Delhi - DPCC",16-12-2025 21:00,28.699793,77.165453,NO2,61,151,96
India,Gujarat,Ahmedabad,"Chandkheda, Ahmedabad - IITM",16-12-2025 21:00,23.107969,72.574648,PM2.5,75,127,91
India,Gujarat,Ahmedabad,"Chandkheda, Ahmedabad - IITM",16-12-2025 21:00,23.107969,72.574648,CO,28,70,43
India,Gujarat,Ahmedabad,"Chandkheda, Ahmedabad - IITM",16-12-2025 21:00,23.107969,72.574648,OZONE,11,60,51
India,Gujarat,Ahmedabad,"Gyaspur, Ahmedabad - IITM",16-12-2025 21:00,22.977134,72.553024,NO2,37,130,72
India,Gujarat,Ahmedabad,"Maninagar, Ahmedabad - GPCB",16-12-2025 21:00,23.002657,72.591912,OZONE,52,69,62
India,Delhi,Delhi,"Lodhi Road, Delhi - IITM",16-12-2025 21:00,28.588333,77.221667,SO2,6,39,19
India,Delhi,Delhi,"Major Dhyan Chand National Stadium, Delhi - DPCC",16-12-2025 21:00,28.611281,77.237738,PM2.5,133,420,312
India,Delhi,Delhi,"Major Dhyan Chand National Stadium, Delhi - DPCC",16-12-2025 21:00,28.611281,77.237738,PM10,152,395,254
India,Delhi,Delhi,"Major Dhyan Chand National Stadium, Delhi - DPCC",16-12-2025 21:00,28.611281,77.237738,NO2,39,156,91
India,Delhi,Delhi,"Major Dhyan Chand National Stadium, Delhi - DPCC",16-12-2025 21:00,28.611281,77.237738,OZONE,1,124,72
India,Delhi,Delhi,"Mandir Marg, Delhi - DPCC",16-12-2025 21:00,28.636429,77.201067,NH3,6,10,8
India,Delhi,Delhi,"North Campus, DU, Delhi - IMD",16-12-2025 21:00,28.6573814,77.1585447,NO2,42,186,106
India,Delhi,Delhi,"Okhla Phase-2, Delhi - DPCC",16-12-2025 21:00,28.530785,77.271255,CO,54,134,73
India,Delhi,Delhi,"Patparganj, Delhi - DPCC",16-12-2025 21:00,28.623763,77.287209,PM10,141,401,241
India,Delhi,Delhi,"Punjabi Bagh, Delhi - DPCC",16-12-2025 21:00,28.674045,77.131023,PM2.5,57,451,346
India,Delhi,Delhi,"Punjabi Bagh, Delhi - DPCC",16-12-2025 21:00,28.674045,77.131023,PM10,125,417,256
India,Delhi,Delhi,"NSIT Dwarka, Delhi - CPCB",16-12-2025 21:00,28.60909,77.0325413,PM2.5,309,500,334
India,Delhi,Delhi,"NSIT Dwarka, Delhi - CPCB",16-12-2025 21:00,28.60909,77.0325413,PM10,174,442,322
India,Delhi,Delhi,"NSIT Dwarka, Delhi - CPCB",16-12-2025 21:00,28.60909,77.0325413,SO2,13,24,17
India,Delhi,Delhi,"Najafgarh, Delhi - DPCC",16-12-2025 21:00,28.570173,76.933762,NO2,89,118,106
India,Delhi,Delhi,"Narela, Delhi - DPCC",16-12-2025 21:00,28.822836,77.101981,PM10,147,389,240
India,Delhi,Delhi,"Pusa, Delhi - DPCC",16-12-2025 21:00,28.639652,77.146275,CO,48,112,83
India,Delhi,Delhi,"Pusa, Delhi - IMD",16-12-2025 21:00,28.63611,77.173332,OZONE,29,128,109
India,Delhi,Delhi,"R K Puram, Delhi - DPCC",16-12-2025 21:00,28.563262,77.186937,SO2,14,30,22
India,Delhi,Delhi,"R K Puram, Delhi - DPCC",16-12-2025 21:00,28.563262,77.186937,CO,38,100,61
India,Delhi,Delhi,"Rohini, Delhi - DPCC",16-12-2025 21:00,28.732528,77.11992,OZONE,4,130,91
India,Delhi,Delhi,"Anand Vihar, Delhi - DPCC",16-12-2025 21:00,28.647622,77.315809,NH3,13,20,16
India,Delhi,Delhi,"Ashok Vihar, Delhi - DPCC",16-12-2025 21:00,28.695381,77.181665,OZONE,5,88,60
India,Delhi,Delhi,"Aya Nagar, Delhi - IMD",16-12-2025 21:00,28.4706914,77.1099364,PM10,144,401,242
India,Delhi,Delhi,"Burari Crossing, Delhi - IMD",16-12-2025 21:00,28.7256504,77.2011573,PM10,182,409,241
India,Delhi,Delhi,"Chandni Chowk, Delhi - IITM",16-12-2025 21:00,28.656756,77.227234,PM2.5,218,383,332
India,Delhi,Delhi,"Chandni Chowk, Delhi - IITM",16-12-2025 21:00,28.656756,77.227234,NH3,6,10,8
India,Delhi,Delhi,"Chandni Chowk, Delhi - IITM",16-12-2025 21:00,28.656756,77.227234,CO,50,83,55
India,Delhi,Delhi,"Dr. Karni Singh Shooting Range, Delhi - DPCC",16-12-2025 21:00,28.498571,77.26484,SO2,11,26,16
India,Delhi,Delhi,"Sirifort, Delhi - CPCB",16-12-2025 21:00,28.5504249,77.2159377,PM2.5,293,416,363
India,Delhi,Delhi,"Sirifort, Delhi - CPCB",16-12-2025 21:00,28.5504249,77.2159377,PM10,184,442,278
India,Delhi,Delhi,"Sirifort, Delhi - CPCB",16-12-2025 21:00,28.5504249,77.2159377,NO2,35,69,48
India,Delhi,Delhi,"Sonia Vihar, Delhi - DPCC",16-12-2025 21:00,28.710508,77.249485,PM2.5,237,411,344
India,Delhi,Delhi,"IGI Airport (T3), Delhi - IMD",16-12-2025 21:00,28.5627763,77.1180053,PM10,133,235,196
India,Delhi,Delhi,"ITO, Delhi - CPCB",16-12-2025 21:00,28.628624,77.24106,NH3,3,5,4
India,Gujarat,Ahmedabad,"Raikhad, Ahmedabad - IITM",16-12-2025 21:00,23.020509,72.579261,OZONE,8,73,50
India,Gujarat,Ahmedabad,"Rakhial, Ahmedabad - IITM",16-12-2025 21:00,23.016834,72.625775,NO2,12,60,25
India,Gujarat,Ahmedabad,"Rakhial, Ahmedabad - IITM",16-12-2025 21:00,23.016834,72.625775,NH3,3,8,5
India,Gujarat,Ahmedabad,"Rakhial, Ahmedabad - IITM",16-12-2025 21:00,23.016834,72.625775,CO,4,46,20
India,Gujarat,Ahmedabad,"SAC ISRO Bopal, Ahmedabad - IITM",16-12-2025 21:00,23.041137,72.456691,PM10,98,180,133
India,Gujarat,Ahmedabad,"SAC ISRO Bopal, Ahmedabad - IITM",16-12-2025 21:00,23.041137,72.456691,NO2,24,53,37
India,Gujarat,Ahmedabad,"SAC ISRO Bopal, Ahmedabad - IITM",16-12-2025 21:00,23.041137,72.456691,OZONE,2,58,40
India,Gujarat,Ahmedabad,"SAC ISRO Satellite, Ahmedabad - IITM",16-12-2025 21:00,23.023389,72.515201,PM2.5,59,121,74
India,Gujarat,Ahmedabad,"SVPI Airport Hansol, Ahmedabad - IITM",16-12-2025 21:00,23.076793,72.627874,PM10,100,172,125
India,Haryana,Faridabad,"New Industrial Town, Faridabad - HSPCB",16-12-2025 21:00,28.39072,77.30059,NH3,NA,NA,NA
India,Haryana,Faridabad,"New Industrial Town, Faridabad - HSPCB",16-12-2025 21:00,28.39072,77.30059,CO,10,12,11
India,Haryana,Faridabad,"New Industrial Town, Faridabad - HSPCB",16-12-2025 21:00,28.39072,77.30059,OZONE,25,32,29
India,Haryana,Faridabad,"Sector 11, Faridabad - HSPCB",16-12-2025 21:00,28.376058,77.315741,NH3,10,10,10
India,Haryana,Faridabad,"Sector 11, Faridabad - HSPCB",16-12-2025 21:00,28.376058,77.315741,SO2,4,5,4
India,Haryana,Faridabad,"Sector 11, Faridabad - HSPCB",16-12-2025 21:00,28.376058,77.315741,CO,10,42,10
India,Haryana,Fatehabad,"Huda Sector, Fatehabad - HSPCB",16-12-2025 21:00,29.503664,75.467934,PM2.5,181,301,225
India,Haryana,Fatehabad,"Huda Sector, Fatehabad - HSPCB",16-12-2025 21:00,29.503664,75.467934,SO2,10,11,10
India,Haryana,Gurugram,"NISE Gwal Pahari, Gurugram - IMD",16-12-2025 21:00,28.422681,77.148944,PM10,144,415,239
India,Gujarat,Vapi,"Phase-1 GIDC, Vapi - GPCB",16-12-2025 21:00,20.362421,72.918013,PM2.5,31,189,75
India,Gujarat,Vapi,"Phase-1 GIDC, Vapi - GPCB",16-12-2025 21:00,20.362421,72.918013,NH3,4,6,5
India,Gujarat,Vapi,"Phase-1 GIDC, Vapi - GPCB",16-12-2025 21:00,20.362421,72.918013,SO2,29,32,31
India,Gujarat,Vatva,"Phase-4 GIDC, Vatva - GPCB",16-12-2025 21:00,22.969611,72.6435,PM2.5,45,150,81
India,Gujarat,Vatva,"Phase-4 GIDC, Vatva - GPCB",16-12-2025 21:00,22.969611,72.6435,PM10,36,147,88
India,Gujarat,Vatva,"Phase-4 GIDC, Vatva - GPCB",16-12-2025 21:00,22.969611,72.6435,OZONE,20,44,38
India,Haryana,Ambala,"Patti Mehar, Ambala - HSPCB",16-12-2025 21:00,30.379589,76.778328,NH3,9,11,10
India,Haryana,Bahadurgarh,"Arya Nagar, Bahadurgarh - HSPCB",16-12-2025 21:00,28.6701,76.9254,NH3,12,13,13
India,Haryana,Jind,"Police Lines, Jind - HSPCB",16-12-2025 21:00,29.307814,76.337619,CO,2,136,97
India,Haryana,Kaithal,"Rishi Nagar, Kaithal - HSPCB",16-12-2025 21:00,29.8006,76.4155,CO,7,38,18
India,Haryana,Karnal,"Sector-12, Karnal - HSPCB",16-12-2025 21:00,29.6953,77.0027,PM10,77,154,120
India,Haryana,Kurukshetra,"Sector-7, Kurukshetra - HSPCB",16-12-2025 21:00,29.966942,76.875879,PM2.5,126,240,193
India,Haryana,Kurukshetra,"Sector-7, Kurukshetra - HSPCB",16-12-2025 21:00,29.966942,76.875879,NH3,5,5,5
India,Haryana,Kurukshetra,"Sector-7, Kurukshetra - HSPCB",16-12-2025 21:00,29.966942,76.875879,OZONE,12,82,63
India,Haryana,Mandikhera,"General Hospital, Mandikhera(Nuh) - HSPCB",16-12-2025 21:00,27.9002,76.9938,PM2.5,NA,NA,NA
India,Haryana,Panchkula,"Sector-6, Panchkula - HSPCB ",16-12-2025 21:00,30.7057778,76.85318056,NO2,24,26,25
India,Haryana,Panchkula,"Sector-6, Panchkula - HSPCB ",16-12-2025 21:00,30.7057778,76.85318056,CO,20,26,23
India,Haryana,Panipat,"Sector-18, Panipat - HSPCB",16-12-2025 21:00,29.432304,76.972765,CO,24,48,43
India,Haryana,Rohtak,"MD University, Rohtak - HSPCB",16-12-2025 21:00,28.52123,76.37138,PM2.5,375,460,418
India,Haryana,Rohtak,"MD University, Rohtak - HSPCB",16-12-2025 21:00,28.52123,76.37138,OZONE,38,40,39
India,Haryana,Sonipat,"Murthal, Sonipat - HSPCB",16-12-2025 21:00,29.0272,77.0621,PM10,131,282,203
India,Haryana,Sonipat,"Murthal, Sonipat - HSPCB",16-12-2025 21:00,29.0272,77.0621,SO2,6,13,8
India,Haryana,Sonipat,"Murthal, Sonipat - HSPCB",16-12-2025 21:00,29.0272,77.0621,CO,18,48,24
India,Haryana,Gurugram,"Sector-51, Gurugram - HSPCB",16-12-2025 21:00,28.4227,77.0667,NO2,4,10,6
India,Haryana,Gurugram,"Sector-51, Gurugram - HSPCB",16-12-2025 21:00,28.4227,77.0667,NH3,6,10,9
India,Haryana,Gurugram,"Sector-51, Gurugram - HSPCB",16-12-2025 21:00,28.4227,77.0667,SO2,2,20,7
India,Haryana,Gurugram,"Sector-51, Gurugram - HSPCB",16-12-2025 21:00,28.4227,77.0667,OZONE,10,46,32
India,Haryana,Gurugram,"Teri Gram, Gurugram - HSPCB",16-12-2025 21:00,28.4275,77.1465,OZONE,10,44,33
India,Haryana,Gurugram,"Vikas Sadan, Gurugram - HSPCB",16-12-2025 21:00,28.4501238,77.0263051,NO2,8,45,19
India,Haryana,Gurugram,"Vikas Sadan, Gurugram - HSPCB",16-12-2025 21:00,28.4501238,77.0263051,SO2,1,8,4
India,Haryana,Hisar,"Urban Estate-II, Hisar - HSPCB",16-12-2025 21:00,29.14056,75.744941,OZONE,38,102,88
India,Haryana,Ballabgarh,"Nathu Colony, Ballabgarh - HSPCB",16-12-2025 21:00,28.3419248,77.319699,CO,15,122,51
India,Haryana,Bhiwani,"H.B. Colony, Bhiwani - HSPCB",16-12-2025 21:00,28.806223,76.141105,SO2,12,13,12
India,Haryana,Charkhi Dadri,"Mini Secretariat, Charkhi Dadri - HSPCB",16-12-2025 21:00,28.593883,76.270653,CO,7,25,13
India,Haryana,Charkhi Dadri,"Mini Secretariat, Charkhi Dadri - HSPCB",16-12-2025 21:00,28.593883,76.270653,OZONE,13,18,15
India,Haryana,Dharuhera,"Municipal Corporation Office, Dharuhera -  HSPCB",16-12-2025 21:00,28.2068,76.7997,SO2,4,13,8
India,Haryana,Dharuhera,"Municipal Corporation Office, Dharuhera -  HSPCB",16-12-2025 21:00,28.2068,76.7997,OZONE,7,55,38
India,Gujarat,Ahmedabad,"SVPI Airport Hansol, Ahmedabad - IITM",16-12-2025 21:00,23.076793,72.627874,CO,14,56,22
India,Gujarat,Ankleshwar,"GIDC, Ankleshwar - GPCB",16-12-2025 21:00,21.613267,73.010555,NH3,5,9,7
India,Gujarat,Ankleshwar,"GIDC, Ankleshwar - GPCB",16-12-2025 21:00,21.613267,73.010555,CO,30,74,47
India,Gujarat,Ankleshwar,"GIDC, Ankleshwar - GPCB",16-12-2025 21:00,21.613267,73.010555,OZONE,32,57,48
India,Gujarat,Gandhinagar,"Sector-10, Gandhinagar - GPCB",16-12-2025 21:00,23.221714,72.654328,PM10,62,124,91
India,Gujarat,Gandhinagar,"Sector-10, Gandhinagar - GPCB",16-12-2025 21:00,23.221714,72.654328,OZONE,4,77,60
India,Haryana,Mandikhera,"General Hospital, Mandikhera(Nuh) - HSPCB",16-12-2025 21:00,27.9002,76.9938,OZONE,26,29,27
India,Haryana,Manesar,"Sector-2 IMT, Manesar - HSPCB",16-12-2025 21:00,28.360699,76.93609,CO,20,88,26
India,Haryana,Panchgaon,"Amity University, Panchgaon - IITM",16-12-2025 21:00,28.3153,76.9143,NH3,5,10,7
India,Haryana,Panchkula,"Sector-6, Panchkula - HSPCB ",16-12-2025 21:00,30.7057778,76.85318056,PM2.5,63,349,229
India,Karnataka,Bengaluru,"Peenya, Bengaluru - CPCB",16-12-2025 21:00,13.0270199,77.494094,OZONE,23,24,24
India,Karnataka,Bengaluru,"RVCE-Mailasandra, Bengaluru - KSPCB",16-12-2025 21:00,12.921418,77.502466,SO2,5,6,6
India,Karnataka,Bengaluru,"Sanegurava Halli, Bengaluru - KSPCB",16-12-2025 21:00,12.990328,77.5431385,PM10,47,62,55
India,Karnataka,Bengaluru,"Sanegurava Halli, Bengaluru - KSPCB",16-12-2025 21:00,12.990328,77.5431385,SO2,7,7,7
India,Karnataka,Bengaluru,"Sanegurava Halli, Bengaluru - KSPCB",16-12-2025 21:00,12.990328,77.5431385,CO,18,36,28
India,Karnataka,Bengaluru,"Shivapura_Peenya, Bengaluru - KSPCB",16-12-2025 21:00,13.0246342,77.5080115,PM2.5,61,158,96
India,Karnataka,Bengaluru,"Silk Board, Bengaluru - KSPCB",16-12-2025 21:00,12.917348,77.622813,NH3,2,2,2
India,Karnataka,Bengaluru,"Silk Board, Bengaluru - KSPCB",16-12-2025 21:00,12.917348,77.622813,SO2,6,12,9
India,Karnataka,Chamarajanagar,"Urban, Chamarajanagar - KSPCB",16-12-2025 21:00,11.55358,76.55521,PM10,32,59,45
India,Karnataka,Chamarajanagar,"Urban, Chamarajanagar - KSPCB",16-12-2025 21:00,11.55358,76.55521,NH3,1,3,2
India,Karnataka,Chamarajanagar,"Urban, Chamarajanagar - KSPCB",16-12-2025 21:00,11.55358,76.55521,SO2,2,5,3
India,Haryana,Yamuna Nagar,"Gobind Pura, Yamuna Nagar - HSPCB",16-12-2025 21:00,30.1480566,77.2893471,PM2.5,NA,NA,NA
India,Himachal Pradesh,Baddi,"HIMUDA Complex Phase-1, Baddi - HPPCB",16-12-2025 21:00,30.943887,76.801991,PM10,130,250,173
India,Himachal Pradesh,Baddi,"HIMUDA Complex Phase-1, Baddi - HPPCB",16-12-2025 21:00,30.943887,76.801991,SO2,28,104,51
India,Jammu_and_Kashmir,Srinagar,"Khunmoh, Srinagar - JKPCC",16-12-2025 21:00,34.06313,74.96017,PM2.5,NA,NA,NA
India,Jammu_and_Kashmir,Srinagar,"Rajbagh, Srinagar - JKSPCB",16-12-2025 21:00,34.066206,74.81982,NO2,NA,NA,NA
India,Jharkhand,Dhanbad,"Sardar Patel Nagar, Dhanbad - JSPCB",16-12-2025 21:00,23.80569,86.44268,SO2,NA,NA,NA
India,Karnataka,Belgaum,"Ramteerth Nagar, Belgaum - KSPCB",16-12-2025 21:00,15.888653,74.541751,PM2.5,39,134,66
India,Karnataka,Hubballi,"Lingaraj Nagar, Hubballi - KSPCB",16-12-2025 21:00,15.3714823,75.1160168,NH3,1,2,2
India,Karnataka,Hubballi,"Lingaraj Nagar, Hubballi - KSPCB",16-12-2025 21:00,15.3714823,75.1160168,CO,6,30,18
India,Karnataka,Kalaburagi,"Mahatma Basaveswar Colony, Kalaburgi - KSPCB",16-12-2025 21:00,17.336318,76.847397,PM10,30,79,54
India,Karnataka,Kalaburagi,"Mahatma Basaveswar Colony, Kalaburgi - KSPCB",16-12-2025 21:00,17.336318,76.847397,NO2,9,18,14
India,Karnataka,Kalaburagi,"Mahatma Basaveswar Colony, Kalaburgi - KSPCB",16-12-2025 21:00,17.336318,76.847397,NH3,2,4,3
India,Karnataka,Koppal,"Diwator Nagar, Koppal - KSPCB",16-12-2025 21:00,15.34763,76.181767,PM10,54,94,67
India,Karnataka,Bengaluru,"BTM Layout, Bengaluru - CPCB",16-12-2025 21:00,12.9135218,77.5950804,PM2.5,71,110,91
India,Karnataka,Bengaluru,"BTM Layout, Bengaluru - CPCB",16-12-2025 21:00,12.9135218,77.5950804,SO2,17,20,17
India,Karnataka,Bengaluru,"BWSSB Kadabesanahalli, Bengaluru - CPCB",16-12-2025 21:00,12.9352049,77.6814488,NO2,8,22,16
India,Karnataka,Bengaluru,"Hombegowda Nagar, Bengaluru - KSPCB",16-12-2025 21:00,12.938539,77.5901,PM2.5,35,85,58
India,Karnataka,Bengaluru,"Hombegowda Nagar, Bengaluru - KSPCB",16-12-2025 21:00,12.938539,77.5901,PM10,63,125,94
India,Karnataka,Davanagere,"Devaraj Urs Badavane, Davanagere - KSPCB",16-12-2025 21:00,14.4758,75.9052,NO2,NA,NA,NA
India,Karnataka,Davanagere,"Devaraj Urs Badavane, Davanagere - KSPCB",16-12-2025 21:00,14.4758,75.9052,CO,43,62,48
India,Karnataka,Haveri,"Ashwini Nagar, Haveri - KSPCB",16-12-2025 21:00,14.7918,75.3896,PM2.5,30,61,36
India,Karnataka,Haveri,"Ashwini Nagar, Haveri - KSPCB",16-12-2025 21:00,14.7918,75.3896,NO2,44,47,46
India,Karnataka,Haveri,"Ashwini Nagar, Haveri - KSPCB",16-12-2025 21:00,14.7918,75.3896,NH3,7,7,7
India,Karnataka,Mysuru,"Hebbal 1st Stage, Mysuru - KSPCB",16-12-2025 21:00,12.21041,76.37376,CO,6,38,23
